{"type":"FeatureCollection","features":[{"type":"Feature","id":"APOTHEKEOGD.2473344","geometry":{"type":"Point","coordinates":[16.34684741,48.23299764]},"geometry_name":"SHAPE","properties":{"OBJECTID":2473344,"BEZEICHNUNG":"Cottage-Apotheke","BEZIRK":18,"STRASSE":"Hasenauerstraße","ONR":"1","ADRESSE":"18., Hasenauerstraße 1","TELEFON":"01 478 67 74","FAX":"01 478 67 74","EMAIL":"cottage-apotheke@gmx.at","WEBLINK1":null,"SE_ANNO_CAD_DATA":null}},{"type":"Feature","id":"APOTHEKEOGD.2473345","geometry":{"type":"Point","coordinates":[16.3121262,48.19976601]},"geometry_name":"SHAPE","properties":{"OBJECTID":2473345,"BEZEICHNUNG":"Schutzengel-Apotheke","BEZIRK":14,"STRASSE":"Breitenseer Straße","ONR":"10","ADRESSE":"14., Breitenseer Straße 10","TELEFON":"01 982 41 73","FAX":"01 982 41 73","EMAIL":"schutzengel.apo14@gmx.at","WEBLINK1":null,"SE_ANNO_CAD_DATA":null}},{"type":"Feature","id":"APOTHEKEOGD.2473346","geometry":{"type":"Point","coordinates":[16.31114471,48.19344895]},"geometry_name":"SHAPE","properties":{"OBJECTID":2473346,"BEZEICHNUNG":"Apotheke \"Zum grünen Kreuz\"","BEZIRK":14,"STRASSE":"Linzer Straße","ONR":"42","ADRESSE":"14., Linzer Straße 42","TELEFON":"01 982 10 51","FAX":"01 982 10 51","EMAIL":"grueneskreuzapothekewien@aon.at","WEBLINK1":null,"SE_ANNO_CAD_DATA":null}},{"type":"Feature","id":"APOTHEKEOGD.2473347","geometry":{"type":"Point","coordinates":[16.41061647,48.17929346]},"geometry_name":"SHAPE","properties":{"OBJECTID":2473347,"BEZEICHNUNG":"Apotheke \"Zum schwarzen Adler\"","BEZIRK":11,"STRASSE":"Simmeringer Hauptstraße","ONR":"44","ADRESSE":"11., Simmeringer Hauptstraße 44","TELEFON":"01 749 12 34","FAX":"01 749 12 34","EMAIL":"apotheke.seuchter@chello.at","WEBLINK1":null,"SE_ANNO_CAD_DATA":null}},{"type":"Feature","id":"APOTHEKEOGD.2473348","geometry":{"type":"Point","coordinates":[16.33308014,48.16949985]},"geometry_name":"SHAPE","properties":{"OBJECTID":2473348,"BEZEICHNUNG":"Vierburgen-Apotheke","BEZIRK":12,"STRASSE":"Kranichberggasse","ONR":"2","ADRESSE":"12., Kranichberggasse 2","TELEFON":"01 813 31 06","FAX":"01 813 31 06","EMAIL":"vierburgen-apo@aon.at","WEBLINK1":null,"SE_ANNO_CAD_DATA":null}},{"type":"Feature","id":"APOTHEKEOGD.2473349","geometry":{"type":"Point","coordinates":[16.27947588,48.13671825]},"geometry_name":"SHAPE","properties":{"OBJECTID":2473349,"BEZEICHNUNG":"Apotheke Liesing Riverside","BEZIRK":23,"STRASSE":"Breitenfurter Straße","ONR":"372","ADRESSE":"23., Breitenfurter Straße 372","TELEFON":"01 867 29 40","FAX":"01 867 29 40 40","EMAIL":"office@apoliesing.at","WEBLINK1":null,"SE_ANNO_CAD_DATA":null}},{"type":"Feature","id":"APOTHEKEOGD.2473350","geometry":{"type":"Point","coordinates":[16.36834574,48.24841386]},"geometry_name":"SHAPE","properties":{"OBJECTID":2473350,"BEZEICHNUNG":"Albarelli-Apotheke","BEZIRK":19,"STRASSE":"Muthgasse","ONR":"26/2","ADRESSE":"19., Muthgasse 26/2","TELEFON":"01 367 25 82","FAX":"01 367 25 82/20","EMAIL":"info@albarelli-apotheke.at","WEBLINK1":null,"SE_ANNO_CAD_DATA":null}},{"type":"Feature","id":"APOTHEKEOGD.2473351","geometry":{"type":"Point","coordinates":[16.3854984,48.2664578]},"geometry_name":"SHAPE","properties":{"OBJECTID":2473351,"BEZEICHNUNG":"Apotheke Jedlesee","BEZIRK":21,"STRASSE":"Jeneweingasse","ONR":"2","ADRESSE":"21., Jeneweingasse 2","TELEFON":"01 270 33 37","FAX":"01 270 33 37 99","EMAIL":"post@apothekejedlesee.at","WEBLINK1":null,"SE_ANNO_CAD_DATA":null}},{"type":"Feature","id":"APOTHEKEOGD.2473352","geometry":{"type":"Point","coordinates":[16.30892463,48.14115083]},"geometry_name":"SHAPE","properties":{"OBJECTID":2473352,"BEZEICHNUNG":"Carlberger Apotheke","BEZIRK":23,"STRASSE":"Carlbergergasse","ONR":"105/1/2","ADRESSE":"23., Carlbergergasse 105/1/2","TELEFON":"01 865 65 42","FAX":"01 865 65 42-13","EMAIL":"office@carlbergerapotheke.at","WEBLINK1":null,"SE_ANNO_CAD_DATA":null}},{"type":"Feature","id":"APOTHEKEOGD.2473353","geometry":{"type":"Point","coordinates":[16.26854505,48.15090478]},"geometry_name":"SHAPE","properties":{"OBJECTID":2473353,"BEZEICHNUNG":"Paracelsus-Apotheke","BEZIRK":23,"STRASSE":"Maurer Hauptplatz","ONR":"2","ADRESSE":"23., Maurer Hauptplatz 2","TELEFON":"01 888 21 31","FAX":"01 888 21 31 75","EMAIL":"paracelsus.apotheke@aon.at","WEBLINK1":null,"SE_ANNO_CAD_DATA":null}},{"type":"Feature","id":"APOTHEKEOGD.2473354","geometry":{"type":"Point","coordinates":[16.38115446,48.17495292]},"geometry_name":"SHAPE","properties":{"OBJECTID":2473354,"BEZEICHNUNG":"Waldapotheke","BEZIRK":10,"STRASSE":"Quellenstraße","ONR":"93","ADRESSE":"10., Quellenstraße 93","TELEFON":"01 604 31 99","FAX":"01 604 31 99 14","EMAIL":"office@waldapotheke.at","WEBLINK1":null,"SE_ANNO_CAD_DATA":null}},{"type":"Feature","id":"APOTHEKEOGD.2473355","geometry":{"type":"Point","coordinates":[16.33813016,48.21784568]},"geometry_name":"SHAPE","properties":{"OBJECTID":2473355,"BEZEICHNUNG":"St. Martin-Apotheke","BEZIRK":18,"STRASSE":"Jörgerstraße","ONR":"24","ADRESSE":"18., Jörgerstraße 24","TELEFON":"01 405 23 35","FAX":"01 405 23 35","EMAIL":"info@gesundheitsapotheke.at","WEBLINK1":"http://www.gesundheitsapotheke.at","SE_ANNO_CAD_DATA":null}},{"type":"Feature","id":"APOTHEKEOGD.2473356","geometry":{"type":"Point","coordinates":[16.37701064,48.19441441]},"geometry_name":"SHAPE","properties":{"OBJECTID":2473356,"BEZEICHNUNG":"Belvedere-Apotheke","BEZIRK":4,"STRASSE":"Prinz-Eugen-Straße","ONR":"24","ADRESSE":"4., Prinz-Eugen-Straße 24","TELEFON":"01 505 01 45","FAX":"01 505 01 45","EMAIL":"belvedere-apotheke@gmx.at","WEBLINK1":null,"SE_ANNO_CAD_DATA":null}},{"type":"Feature","id":"APOTHEKEOGD.2473357","geometry":{"type":"Point","coordinates":[16.36721557,48.19683294]},"geometry_name":"SHAPE","properties":{"OBJECTID":2473357,"BEZEICHNUNG":"Paulaner-Apotheke","BEZIRK":4,"STRASSE":"Wiedner Hauptstraße","ONR":"18","ADRESSE":"4., Wiedner Hauptstraße 18","TELEFON":"01 587 91 39","FAX":"01 587 91 39","EMAIL":null,"WEBLINK1":null,"SE_ANNO_CAD_DATA":null}},{"type":"Feature","id":"APOTHEKEOGD.2473358","geometry":{"type":"Point","coordinates":[16.36874997,48.18680408]},"geometry_name":"SHAPE","properties":{"OBJECTID":2473358,"BEZEICHNUNG":"Johann Strauß-Apotheke","BEZIRK":4,"STRASSE":"Johann Strauß Gasse","ONR":"32","ADRESSE":"4., Johann Strauß Gasse 32","TELEFON":"01 505 21 64","FAX":"01 505 21 64","EMAIL":"office@johann-strauss-apotheke.at","WEBLINK1":"http://www.johann-strauss-apotheke.at","SE_ANNO_CAD_DATA":null}},{"type":"Feature","id":"APOTHEKEOGD.2473359","geometry":{"type":"Point","coordinates":[16.37236253,48.18976601]},"geometry_name":"SHAPE","properties":{"OBJECTID":2473359,"BEZEICHNUNG":"Stern-Apotheke","BEZIRK":4,"STRASSE":"Favoritenstraße","ONR":"25","ADRESSE":"4., Favoritenstraße 25","TELEFON":"01 505 51 46","FAX":"01 505 51 46","EMAIL":"sternapotheke@aon.at","WEBLINK1":null,"SE_ANNO_CAD_DATA":null}},{"type":"Feature","id":"APOTHEKEOGD.2473360","geometry":{"type":"Point","coordinates":[16.36400414,48.19547986]},"geometry_name":"SHAPE","properties":{"OBJECTID":2473360,"BEZEICHNUNG":"Apotheke \"Zum Einhorn\"","BEZIRK":4,"STRASSE":"Margaretenstraße","ONR":"31","ADRESSE":"4., Margaretenstraße 31","TELEFON":"01 587 46 47","FAX":"01 587 46 47","EMAIL":"office@einhornapotheke.at","WEBLINK1":null,"SE_ANNO_CAD_DATA":null}},{"type":"Feature","id":"APOTHEKEOGD.2473361","geometry":{"type":"Point","coordinates":[16.36967613,48.195167]},"geometry_name":"SHAPE","properties":{"OBJECTID":2473361,"BEZEICHNUNG":"Schutzengel-Apotheke","BEZIRK":4,"STRASSE":"Favoritenstraße","ONR":"11","ADRESSE":"4., Favoritenstraße 11","TELEFON":"01 505 01 24","FAX":"01 505 01 24","EMAIL":"h.zich@aon.at","WEBLINK1":"http://www.apotheke-zum-schutzengel.at","SE_ANNO_CAD_DATA":null}},{"type":"Feature","id":"APOTHEKEOGD.2473362","geometry":{"type":"Point","coordinates":[16.35545419,48.1911225]},"geometry_name":"SHAPE","properties":{"OBJECTID":2473362,"BEZEICHNUNG":"Sonnenhof Apotheke","BEZIRK":5,"STRASSE":"Schönbrunner Straße","ONR":"50","ADRESSE":"5., Schönbrunner Straße 50","TELEFON":"01 544 63 48","FAX":"01 544 63 48","EMAIL":"kontakt@sonnenhof-apotheke.at","WEBLINK1":"http://www.muttergottes-apotheke.at","SE_ANNO_CAD_DATA":null}},{"type":"Feature","id":"APOTHEKEOGD.2473363","geometry":{"type":"Point","coordinates":[16.3594156,48.19644603]},"geometry_name":"SHAPE","properties":{"OBJECTID":2473363,"BEZEICHNUNG":"Apotheke an der Kettenbrücke","BEZIRK":5,"STRASSE":"Kettenbrückengasse","ONR":"23","ADRESSE":"5., Kettenbrückengasse 23","TELEFON":"01 587 65 19","FAX":"01 587 65 19","EMAIL":"doris.thomann@apokette.at","WEBLINK1":null,"SE_ANNO_CAD_DATA":null}},{"type":"Feature","id":"APOTHEKEOGD.2473364","geometry":{"type":"Point","coordinates":[16.34851387,48.18161767]},"geometry_name":"SHAPE","properties":{"OBJECTID":2473364,"BEZEICHNUNG":"Haydn-Apotheke","BEZIRK":5,"STRASSE":"Margaretengürtel","ONR":"98","ADRESSE":"5., Margaretengürtel 98","TELEFON":"01 545 46 46","FAX":"01 545 46 46","EMAIL":"haydn-apotheke@haydn-apo.at","WEBLINK1":null,"SE_ANNO_CAD_DATA":null}},{"type":"Feature","id":"APOTHEKEOGD.2473365","geometry":{"type":"Point","coordinates":[16.357116,48.18667558]},"geometry_name":"SHAPE","properties":{"OBJECTID":2473365,"BEZEICHNUNG":"Siebenbrunnen-Apotheke","BEZIRK":5,"STRASSE":"Siebenbrunnengasse","ONR":"32","ADRESSE":"5., Siebenbrunnengasse 32","TELEFON":"01 544 23 19","FAX":"01 544 23 19","EMAIL":"info@siebenbrunnen-apotheke.at","WEBLINK1":"http://www.siebenbrunnen-apotheke.at","SE_ANNO_CAD_DATA":null}},{"type":"Feature","id":"APOTHEKEOGD.2473366","geometry":{"type":"Point","coordinates":[16.3635145,48.18610164]},"geometry_name":"SHAPE","properties":{"OBJECTID":2473366,"BEZEICHNUNG":"Herz-Jesu-Apotheke","BEZIRK":5,"STRASSE":"Wiedner Hauptstraße","ONR":"95","ADRESSE":"5., Wiedner Hauptstraße 95","TELEFON":"01 545 14 14","FAX":"01 545 14 14","EMAIL":"office@herzjesu-apotheke.at","WEBLINK1":"http://www.herzjesu-apotheke.at","SE_ANNO_CAD_DATA":null}},{"type":"Feature","id":"APOTHEKEOGD.2473367","geometry":{"type":"Point","coordinates":[16.34944195,48.18865272]},"geometry_name":"SHAPE","properties":{"OBJECTID":2473367,"BEZEICHNUNG":"St. Franziskus-Apotheke","BEZIRK":5,"STRASSE":"Schönbrunner Straße","ONR":"109","ADRESSE":"5., Schönbrunner Straße 109","TELEFON":"01 544 63 17","FAX":"01 544 63 17","EMAIL":"st.franziskus.apotheke@indec.cc","WEBLINK1":null,"SE_ANNO_CAD_DATA":null}},{"type":"Feature","id":"APOTHEKEOGD.2473368","geometry":{"type":"Point","coordinates":[16.35199308,48.18621991]},"geometry_name":"SHAPE","properties":{"OBJECTID":2473368,"BEZEICHNUNG":"Apotheke \"Zum Einsiedler\"","BEZIRK":5,"STRASSE":"Arbeitergasse","ONR":"22","ADRESSE":"5., Arbeitergasse 22","TELEFON":"01 544 27 16","FAX":"01 544 27 16","EMAIL":"apoeinsiedler@aon.at","WEBLINK1":"http://www.apo-einsiedler.at.vu","SE_ANNO_CAD_DATA":null}},{"type":"Feature","id":"APOTHEKEOGD.2473369","geometry":{"type":"Point","coordinates":[16.35935783,48.1918514]},"geometry_name":"SHAPE","properties":{"OBJECTID":2473369,"BEZEICHNUNG":"Margareten-Apotheke","BEZIRK":5,"STRASSE":"Margaretenstraße","ONR":"75","ADRESSE":"5., Margaretenstraße 75","TELEFON":"01 544 51 03","FAX":"01 544 51 03","EMAIL":"info@margaretenapo.at","WEBLINK1":"http://www.aponet.at/margaretenapo","SE_ANNO_CAD_DATA":null}},{"type":"Feature","id":"APOTHEKEOGD.2473370","geometry":{"type":"Point","coordinates":[16.35219154,48.1934027]},"geometry_name":"SHAPE","properties":{"OBJECTID":2473370,"BEZEICHNUNG":"Alte Hofmühl-Apotheke","BEZIRK":6,"STRASSE":"Hofmühlgasse","ONR":"9","ADRESSE":"6., Hofmühlgasse 9","TELEFON":"01 597 54 02","FAX":"01 597 54 02","EMAIL":"alte_hofmuehlapotheke@chello.at","WEBLINK1":null,"SE_ANNO_CAD_DATA":null}},{"type":"Feature","id":"APOTHEKEOGD.2473371","geometry":{"type":"Point","coordinates":[16.34224872,48.19319744]},"geometry_name":"SHAPE","properties":{"OBJECTID":2473371,"BEZEICHNUNG":"St. Nikolaus-Apotheke","BEZIRK":6,"STRASSE":"Bürgerspitalgasse","ONR":"14","ADRESSE":"6., Bürgerspitalgasse 14","TELEFON":"01 597 24 52","FAX":"01 597 24 52","EMAIL":"st.nikolausapo@utanet.at","WEBLINK1":null,"SE_ANNO_CAD_DATA":null}},{"type":"Feature","id":"APOTHEKEOGD.2473372","geometry":{"type":"Point","coordinates":[16.36270731,48.19858886]},"geometry_name":"SHAPE","properties":{"OBJECTID":2473372,"BEZEICHNUNG":"Apotheke \"Am Naschmarkt\"","BEZIRK":6,"STRASSE":"Linke Wienzeile","ONR":"20","ADRESSE":"6., Linke Wienzeile 20","TELEFON":"01 586 51 59","FAX":"01 586 51 59","EMAIL":"apotheke.naschm.@aon.at","WEBLINK1":null,"SE_ANNO_CAD_DATA":null}},{"type":"Feature","id":"APOTHEKEOGD.2473373","geometry":{"type":"Point","coordinates":[16.35829728,48.19899988]},"geometry_name":"SHAPE","properties":{"OBJECTID":2473373,"BEZEICHNUNG":"St. Charles Apotheke","BEZIRK":6,"STRASSE":"Gumpendorfer Straße","ONR":"30","ADRESSE":"6., Gumpendorfer Straße 30","TELEFON":"01 586 13 63","FAX":"01 586 13 63","EMAIL":"service@stcharlesapo.at","WEBLINK1":null,"SE_ANNO_CAD_DATA":null}},{"type":"Feature","id":"APOTHEKEOGD.2473374","geometry":{"type":"Point","coordinates":[16.35327724,48.19936775]},"geometry_name":"SHAPE","properties":{"OBJECTID":2473374,"BEZEICHNUNG":"Essenz Apotheke Mariahilf","BEZIRK":6,"STRASSE":"Mariahilfer Straße","ONR":"55","ADRESSE":"6., Mariahilfer Straße 55","TELEFON":"01 586 42 40","FAX":"01 586 42 40","EMAIL":"apo.zurMariahilf@aon.at","WEBLINK1":null,"SE_ANNO_CAD_DATA":null}},{"type":"Feature","id":"APOTHEKEOGD.2473375","geometry":{"type":"Point","coordinates":[16.38763813,48.1943997]},"geometry_name":"SHAPE","properties":{"OBJECTID":2473375,"BEZEICHNUNG":"Carolus-Apotheke","BEZIRK":3,"STRASSE":"Rennweg","ONR":"41","ADRESSE":"3., Rennweg 41","TELEFON":"01 713 13 75","FAX":"01 713 13 75","EMAIL":"carolus-apotheke@chello.at","WEBLINK1":null,"SE_ANNO_CAD_DATA":null}},{"type":"Feature","id":"APOTHEKEOGD.2473376","geometry":{"type":"Point","coordinates":[16.36999434,48.21225286]},"geometry_name":"SHAPE","properties":{"OBJECTID":2473376,"BEZEICHNUNG":"Mohren-Apotheke","BEZIRK":1,"STRASSE":"Wipplingerstraße","ONR":"12","ADRESSE":"1., Wipplingerstraße 12","TELEFON":"01 533 64 53","FAX":"01 533 64 53","EMAIL":"office@mohrenapo.at","WEBLINK1":null,"SE_ANNO_CAD_DATA":null}},{"type":"Feature","id":"APOTHEKEOGD.2473377","geometry":{"type":"Point","coordinates":[16.37153581,48.21582103]},"geometry_name":"SHAPE","properties":{"OBJECTID":2473377,"BEZEICHNUNG":"Apotheke am Werdertor","BEZIRK":1,"STRASSE":"Werdertorgasse","ONR":"19","ADRESSE":"1., Werdertorgasse 19","TELEFON":"01 533 75 50","FAX":"01 533 75 50-3","EMAIL":"office@werdertor-apotheke.at","WEBLINK1":"http://www.werdertor.apo.or.at","SE_ANNO_CAD_DATA":null}},{"type":"Feature","id":"APOTHEKEOGD.2473378","geometry":{"type":"Point","coordinates":[16.36570264,48.21189666]},"geometry_name":"SHAPE","properties":{"OBJECTID":2473378,"BEZEICHNUNG":"Apotheke \"Zu u.lieben Frau b.d.Schotten\"","BEZIRK":1,"STRASSE":"Freyung","ONR":"7","ADRESSE":"1., Freyung 7","TELEFON":"01 533 24 57","FAX":"01 533 24 57","EMAIL":"info@schottenapotheke.at","WEBLINK1":null,"SE_ANNO_CAD_DATA":null}},{"type":"Feature","id":"APOTHEKEOGD.2473379","geometry":{"type":"Point","coordinates":[16.37010817,48.20269034]},"geometry_name":"SHAPE","properties":{"OBJECTID":2473379,"BEZEICHNUNG":"Opern-Apotheke","BEZIRK":1,"STRASSE":"Kärntner Straße","ONR":"55","ADRESSE":"1., Kärntner Straße 55","TELEFON":"01 512 68 64","FAX":"01 512 68 64","EMAIL":null,"WEBLINK1":"http://www.opern-apotheke.at","SE_ANNO_CAD_DATA":null}},{"type":"Feature","id":"APOTHEKEOGD.2473380","geometry":{"type":"Point","coordinates":[16.37265149,48.20578828]},"geometry_name":"SHAPE","properties":{"OBJECTID":2473380,"BEZEICHNUNG":"Apotheke \"Zur goldenen Krone\"","BEZIRK":1,"STRASSE":"Himmelpfortgasse","ONR":"7","ADRESSE":"1., Himmelpfortgasse 7","TELEFON":"01 512 47 10","FAX":"01 512 47 10","EMAIL":"info@apo-goldene-krone.at","WEBLINK1":null,"SE_ANNO_CAD_DATA":null}},{"type":"Feature","id":"APOTHEKEOGD.2473381","geometry":{"type":"Point","coordinates":[16.36928774,48.20674904]},"geometry_name":"SHAPE","properties":{"OBJECTID":2473381,"BEZEICHNUNG":"Alte Leopoldsapotheke","BEZIRK":1,"STRASSE":"Plankengasse","ONR":"6","ADRESSE":"1., Plankengasse 6","TELEFON":"01 512 13 81","FAX":"01 512 13 81","EMAIL":"kontakt@alte-leopoldsapotheke.at","WEBLINK1":null,"SE_ANNO_CAD_DATA":null}},{"type":"Feature","id":"APOTHEKEOGD.2473382","geometry":{"type":"Point","coordinates":[16.37541458,48.21114084]},"geometry_name":"SHAPE","properties":{"OBJECTID":2473382,"BEZEICHNUNG":"Brady-Apotheke \"Zum roten Turm\"","BEZIRK":1,"STRASSE":"Rotenturmstraße","ONR":"23","ADRESSE":"1., Rotenturmstraße 23","TELEFON":"01 533 81 65","FAX":"01 533 81 65","EMAIL":"bradyapo@a1.net","WEBLINK1":null,"SE_ANNO_CAD_DATA":null}},{"type":"Feature","id":"APOTHEKEOGD.2473383","geometry":{"type":"Point","coordinates":[16.36525935,48.21485842]},"geometry_name":"SHAPE","properties":{"OBJECTID":2473383,"BEZEICHNUNG":"Apotheke \"Zum Schwan\"","BEZIRK":1,"STRASSE":"Schottenring","ONR":"14","ADRESSE":"1., Schottenring 14","TELEFON":"01 533 35 41","FAX":"01 533 35 41","EMAIL":"info@doskar.at","WEBLINK1":null,"SE_ANNO_CAD_DATA":null}},{"type":"Feature","id":"APOTHEKEOGD.2473424","geometry":{"type":"Point","coordinates":[16.38053442,48.2439696]},"geometry_name":"SHAPE","properties":{"OBJECTID":2473424,"BEZEICHNUNG":"Apotheke Aurora","BEZIRK":20,"STRASSE":"Engerthstraße","ONR":"52","ADRESSE":"20., Engerthstraße 52","TELEFON":"01 332 27 70","FAX":"01 332 27 70","EMAIL":"office@apoaurora.at","WEBLINK1":"http://www.apoaurora.at","SE_ANNO_CAD_DATA":null}},{"type":"Feature","id":"APOTHEKEOGD.2473425","geometry":{"type":"Point","coordinates":[16.39554333,48.25500678]},"geometry_name":"SHAPE","properties":{"OBJECTID":2473425,"BEZEICHNUNG":"Apotheke \"Zur blauen Donau\"","BEZIRK":21,"STRASSE":"Floridsdorfer Hauptstraße","ONR":"20","ADRESSE":"21., Floridsdorfer Hauptstraße 20","TELEFON":"01 278 12 25","FAX":"01 278 12 25","EMAIL":"blauedonau@utanet.at","WEBLINK1":null,"SE_ANNO_CAD_DATA":null}},{"type":"Feature","id":"APOTHEKEOGD.2473426","geometry":{"type":"Point","coordinates":[16.41041444,48.25414217]},"geometry_name":"SHAPE","properties":{"OBJECTID":2473426,"BEZEICHNUNG":"Apotheke \"Zur Mariazeller Muttergottes\"","BEZIRK":21,"STRASSE":"Donaufelder Straße","ONR":"22","ADRESSE":"21., Donaufelder Straße 22","TELEFON":"01 271 11 87","FAX":"01 271 11 87","EMAIL":"apotheke-kling@aon.at","WEBLINK1":null,"SE_ANNO_CAD_DATA":null}},{"type":"Feature","id":"APOTHEKEOGD.2473427","geometry":{"type":"Point","coordinates":[16.40059891,48.26296659]},"geometry_name":"SHAPE","properties":{"OBJECTID":2473427,"BEZEICHNUNG":"Rosen-Apotheke","BEZIRK":21,"STRASSE":"Brünner Straße","ONR":"37","ADRESSE":"21., Brünner Straße 37","TELEFON":"01 278 13 13","FAX":"01 278 13 13","EMAIL":"rosen-apo@aponet.at","WEBLINK1":null,"SE_ANNO_CAD_DATA":null}},{"type":"Feature","id":"APOTHEKEOGD.2473428","geometry":{"type":"Point","coordinates":[16.39198644,48.26817434]},"geometry_name":"SHAPE","properties":{"OBJECTID":2473428,"BEZEICHNUNG":"Apotheke \"Zum Schutzengel\"","BEZIRK":21,"STRASSE":"Prager Straße","ONR":"81","ADRESSE":"21., Prager Straße 81","TELEFON":"01 271 16 62","FAX":"01 271 16 62","EMAIL":"schutzengel@aon.at","WEBLINK1":null,"SE_ANNO_CAD_DATA":null}},{"type":"Feature","id":"APOTHEKEOGD.2473429","geometry":{"type":"Point","coordinates":[16.38348838,48.28727538]},"geometry_name":"SHAPE","properties":{"OBJECTID":2473429,"BEZEICHNUNG":"Vital Apotheke Strebersdorf","BEZIRK":21,"STRASSE":"Prager Straße","ONR":"276","ADRESSE":"21., Prager Straße 276","TELEFON":"01 292 20 85","FAX":"01 292 20 85","EMAIL":"info@vitalapo-strebersdorf.at","WEBLINK1":"http://www.vitalapo-strebersdorf.at","SE_ANNO_CAD_DATA":null}},{"type":"Feature","id":"APOTHEKEOGD.2473430","geometry":{"type":"Point","coordinates":[16.3880149,48.2931916]},"geometry_name":"SHAPE","properties":{"OBJECTID":2473430,"BEZEICHNUNG":"Danubia-Apotheke","BEZIRK":21,"STRASSE":"Russbergstraße","ONR":"64","ADRESSE":"21., Russbergstraße 64","TELEFON":"01 292 13 86","FAX":"01 292 13 86","EMAIL":"strebersdorf@danubiaapotheke.at","WEBLINK1":null,"SE_ANNO_CAD_DATA":null}},{"type":"Feature","id":"APOTHEKEOGD.2473431","geometry":{"type":"Point","coordinates":[16.4479851,48.26684623]},"geometry_name":"SHAPE","properties":{"OBJECTID":2473431,"BEZEICHNUNG":"Apotheke 21","BEZIRK":21,"STRASSE":"Kürschnergasse","ONR":"1a","ADRESSE":"21., Kürschnergasse 1a","TELEFON":"01 890 32 28","FAX":"01 890 32 28","EMAIL":"info@apo21.at","WEBLINK1":"http://www.apo21.at","SE_ANNO_CAD_DATA":null}},{"type":"Feature","id":"APOTHEKEOGD.2473432","geometry":{"type":"Point","coordinates":[16.40898395,48.27663706]},"geometry_name":"SHAPE","properties":{"OBJECTID":2473432,"BEZEICHNUNG":"Mariahilf-Apotheke","BEZIRK":21,"STRASSE":"Brünner Straße","ONR":"128","ADRESSE":"21., Brünner Straße 128","TELEFON":"01 292 15 89","FAX":"01 292 15 89","EMAIL":"mariahilf.apotheke@chello.at","WEBLINK1":null,"SE_ANNO_CAD_DATA":null}},{"type":"Feature","id":"APOTHEKEOGD.2473433","geometry":{"type":"Point","coordinates":[16.44595173,48.27258084]},"geometry_name":"SHAPE","properties":{"OBJECTID":2473433,"BEZEICHNUNG":"St. Anna-Apotheke","BEZIRK":21,"STRASSE":"Kürschnergasse","ONR":"9","ADRESSE":"21., Kürschnergasse 9 - Großfeldzentrum, Großfeldzentrum","TELEFON":"01 259 85 13","FAX":"01 259 85 13","EMAIL":"st-anna-apotheke21@aon.at","WEBLINK1":null,"SE_ANNO_CAD_DATA":null}},{"type":"Feature","id":"APOTHEKEOGD.2473434","geometry":{"type":"Point","coordinates":[16.3795603,48.29435117]},"geometry_name":"SHAPE","properties":{"OBJECTID":2473434,"BEZEICHNUNG":"C 21 Apotheke","BEZIRK":21,"STRASSE":"Prager Straße","ONR":"286","ADRESSE":"21., Prager Straße 286","TELEFON":"01 292 29 25","FAX":"01 292 29 25","EMAIL":"info@c21-apotheke.at","WEBLINK1":"http://www.c21-apotheke.at","SE_ANNO_CAD_DATA":null}},{"type":"Feature","id":"APOTHEKEOGD.2473435","geometry":{"type":"Point","coordinates":[16.38672734,48.27792585]},"geometry_name":"SHAPE","properties":{"OBJECTID":2473435,"BEZEICHNUNG":"Floridus-Apotheke","BEZIRK":21,"STRASSE":"Autokaderstraße","ONR":"3","ADRESSE":"21., Autokaderstraße 3 - Ladenzeile, Ladenzeile","TELEFON":"01 271 94 72","FAX":"01 271 94 72","EMAIL":null,"WEBLINK1":null,"SE_ANNO_CAD_DATA":null}},{"type":"Feature","id":"APOTHEKEOGD.2473436","geometry":{"type":"Point","coordinates":[16.40309111,48.27335637]},"geometry_name":"SHAPE","properties":{"OBJECTID":2473436,"BEZEICHNUNG":"Apotheke Trillerpark","BEZIRK":21,"STRASSE":"Trillergasse","ONR":"4","ADRESSE":"21., Trillergasse 4","TELEFON":"01 292 77 08","FAX":"01 292 77 08 15","EMAIL":"apotrillerpark@inode.at","WEBLINK1":null,"SE_ANNO_CAD_DATA":null}},{"type":"Feature","id":"APOTHEKEOGD.2473437","geometry":{"type":"Point","coordinates":[16.42297536,48.27754851]},"geometry_name":"SHAPE","properties":{"OBJECTID":2473437,"BEZEICHNUNG":"Marco-Polo-Apotheke","BEZIRK":21,"STRASSE":"Ruthnergasse","ONR":"89","ADRESSE":"21., Ruthnergasse 89","TELEFON":"01 292 79 72","FAX":"01 292 79 72","EMAIL":"marcopolo.apo@aon.at","WEBLINK1":null,"SE_ANNO_CAD_DATA":null}},{"type":"Feature","id":"APOTHEKEOGD.2473438","geometry":{"type":"Point","coordinates":[16.45274489,48.27008145]},"geometry_name":"SHAPE","properties":{"OBJECTID":2473438,"BEZEICHNUNG":"Großfeld-Apotheke","BEZIRK":21,"STRASSE":"Adolf Loos-Gasse","ONR":"9","ADRESSE":"21., Adolf Loos-Gasse 9","TELEFON":"01 259 56 20","FAX":"01 259 56 20","EMAIL":"grossfeldapo@chello.at","WEBLINK1":"http://www.grossfeldapo.at","SE_ANNO_CAD_DATA":null}},{"type":"Feature","id":"APOTHEKEOGD.2473439","geometry":{"type":"Point","coordinates":[16.42066688,48.29701516]},"geometry_name":"SHAPE","properties":{"OBJECTID":2473439,"BEZEICHNUNG":"Apotheke \"Zur heiligen Dreifaltigkeit\"","BEZIRK":21,"STRASSE":"Brünner Straße","ONR":"256","ADRESSE":"21., Brünner Straße 256","TELEFON":"01 292 26 60","FAX":"01 292 26 60","EMAIL":"apo.stammersdorf@aon.at","WEBLINK1":null,"SE_ANNO_CAD_DATA":null}},{"type":"Feature","id":"APOTHEKEOGD.2473440","geometry":{"type":"Point","coordinates":[16.33488086,48.24082445]},"geometry_name":"SHAPE","properties":{"OBJECTID":2473440,"BEZEICHNUNG":"Krim-Apotheke","BEZIRK":19,"STRASSE":"Krottenbachstraße","ONR":"62","ADRESSE":"19., Krottenbachstraße 62","TELEFON":"01 368 22 02","FAX":"01 368 22 02","EMAIL":"apo-krim@via.at","WEBLINK1":null,"SE_ANNO_CAD_DATA":null}},{"type":"Feature","id":"APOTHEKEOGD.2473441","geometry":{"type":"Point","coordinates":[16.33561174,48.1892975]},"geometry_name":"SHAPE","properties":{"OBJECTID":2473441,"BEZEICHNUNG":"Apotheke \"Zum Erzengel Michael\"","BEZIRK":15,"STRASSE":"Sechshauser Straße","ONR":"16","ADRESSE":"15., Sechshauser Straße 16","TELEFON":"01 893 67 71","FAX":"01 893 67 71","EMAIL":"apo.zeidler@aon.at","WEBLINK1":null,"SE_ANNO_CAD_DATA":null}},{"type":"Feature","id":"APOTHEKEOGD.2473442","geometry":{"type":"Point","coordinates":[16.32838837,48.21022737]},"geometry_name":"SHAPE","properties":{"OBJECTID":2473442,"BEZEICHNUNG":"Richard-Wagner-Apotheke","BEZIRK":16,"STRASSE":"Thaliastraße","ONR":"62","ADRESSE":"16., Thaliastraße 62","TELEFON":"01 486 42 17","FAX":"01 486 42 17","EMAIL":"office@richardwagnerapo.at","WEBLINK1":"http://www.richardwagnerapo.at","SE_ANNO_CAD_DATA":null}},{"type":"Feature","id":"APOTHEKEOGD.2473443","geometry":{"type":"Point","coordinates":[16.31009761,48.21754021]},"geometry_name":"SHAPE","properties":{"OBJECTID":2473443,"BEZEICHNUNG":"Falken-Apotheke","BEZIRK":16,"STRASSE":"Wilhelminenstraße","ONR":"76","ADRESSE":"16., Wilhelminenstraße 76","TELEFON":"01 486 31 60","FAX":"01 486 31 60","EMAIL":"falken.apo@aon.at","WEBLINK1":"http://www.falken-apotheke.at","SE_ANNO_CAD_DATA":null}},{"type":"Feature","id":"APOTHEKEOGD.2473444","geometry":{"type":"Point","coordinates":[16.33006624,48.17455811]},"geometry_name":"SHAPE","properties":{"OBJECTID":2473444,"BEZEICHNUNG":"St. Anna-Apotheke","BEZIRK":12,"STRASSE":"Meidlinger Hauptstraße","ONR":"86","ADRESSE":"12., Meidlinger Hauptstraße 86","TELEFON":"01 813 10 62","FAX":"01 813 10 62","EMAIL":"info@apotheke-st-anna.at","WEBLINK1":"http://www.apotheke-st-anna.at","SE_ANNO_CAD_DATA":null}},{"type":"Feature","id":"APOTHEKEOGD.2473445","geometry":{"type":"Point","coordinates":[16.32916328,48.18311847]},"geometry_name":"SHAPE","properties":{"OBJECTID":2473445,"BEZEICHNUNG":"Apotheke Schwenk \"Z.hl.Johann v.Nepomuk\"","BEZIRK":12,"STRASSE":"Schönbrunner Straße","ONR":"259","ADRESSE":"12., Schönbrunner Straße 259","TELEFON":"01 813 41 49","FAX":"01 813 41 49","EMAIL":"gesund@apotheke-schwenk.at","WEBLINK1":"http://www.apotheke-schwenk.at","SE_ANNO_CAD_DATA":null}},{"type":"Feature","id":"APOTHEKEOGD.2473446","geometry":{"type":"Point","coordinates":[16.31026876,48.16685059]},"geometry_name":"SHAPE","properties":{"OBJECTID":2473446,"BEZEICHNUNG":"Klimt-Apotheke","BEZIRK":12,"STRASSE":"Hetzendorfer Straße","ONR":"75 A","ADRESSE":"12., Hetzendorfer Straße 75 A","TELEFON":"01 804 27 50","FAX":"01 804 27 50","EMAIL":"info@klimtapotheke.at","WEBLINK1":null,"SE_ANNO_CAD_DATA":null}},{"type":"Feature","id":"APOTHEKEOGD.2473447","geometry":{"type":"Point","coordinates":[16.32184713,48.18060508]},"geometry_name":"SHAPE","properties":{"OBJECTID":2473447,"BEZEICHNUNG":"Maria-Lourdes-Apotheke","BEZIRK":12,"STRASSE":"Tivoligasse","ONR":"50","ADRESSE":"12., Tivoligasse 50","TELEFON":"01 813 72 18","FAX":"01 813 72 18","EMAIL":"office@mla.at","WEBLINK1":null,"SE_ANNO_CAD_DATA":null}},{"type":"Feature","id":"APOTHEKEOGD.2473448","geometry":{"type":"Point","coordinates":[16.34108875,48.17786552]},"geometry_name":"SHAPE","properties":{"OBJECTID":2473448,"BEZEICHNUNG":"Apotheke \"Am Fuchsenfeld\"","BEZIRK":12,"STRASSE":"Längenfeldgasse","ONR":"33","ADRESSE":"12., Längenfeldgasse 33","TELEFON":"01 813 10 77","FAX":"01 813 10 77","EMAIL":"w.thomann@apofuchs.at","WEBLINK1":"http://www.apofuchs.at","SE_ANNO_CAD_DATA":null}},{"type":"Feature","id":"APOTHEKEOGD.2473449","geometry":{"type":"Point","coordinates":[16.29945969,48.16833069]},"geometry_name":"SHAPE","properties":{"OBJECTID":2473449,"BEZEICHNUNG":"Rosenhügel-Apotheke","BEZIRK":12,"STRASSE":"Münchenstraße","ONR":"10","ADRESSE":"12., Münchenstraße 10","TELEFON":"01 804 31 39","FAX":"01 804 31 39","EMAIL":"rosenhuegelapotheke@aon.at","WEBLINK1":null,"SE_ANNO_CAD_DATA":null}},{"type":"Feature","id":"APOTHEKEOGD.2473450","geometry":{"type":"Point","coordinates":[16.40213962,48.14251757]},"geometry_name":"SHAPE","properties":{"OBJECTID":2473450,"BEZEICHNUNG":"Kur-Apotheke Oberlaa","BEZIRK":10,"STRASSE":"Kurbadstraße","ONR":"14","ADRESSE":"10., Kurbadstraße 14","TELEFON":"01 688 13 23","FAX":"01 688 13 23 30","EMAIL":"kur@apothekenoberlaa.at","WEBLINK1":null,"SE_ANNO_CAD_DATA":null}},{"type":"Feature","id":"APOTHEKEOGD.2473451","geometry":{"type":"Point","coordinates":[16.43502853,48.24241733]},"geometry_name":"SHAPE","properties":{"OBJECTID":2473451,"BEZEICHNUNG":"Apotheke Regenwald","BEZIRK":22,"STRASSE":"Wagramer Straße","ONR":"81","ADRESSE":"22., Wagramer Str.81/134 (Siebeckstr.7), Top 134","TELEFON":"01 202 28 13","FAX":"01 202 28 13/4","EMAIL":"apotheke-rw@vitalpartner.at","WEBLINK1":null,"SE_ANNO_CAD_DATA":null}},{"type":"Feature","id":"APOTHEKEOGD.2473452","geometry":{"type":"Point","coordinates":[16.3256081,48.20187596]},"geometry_name":"SHAPE","properties":{"OBJECTID":2473452,"BEZEICHNUNG":"Sonnschein-Apotheke","BEZIRK":15,"STRASSE":"Witzelsbergergasse","ONR":"26-28","ADRESSE":"15., Witzelsbergergasse 26-28","TELEFON":"01 786 15 85","FAX":"01 786 15 85 16","EMAIL":"info@sonnschein-apo.at","WEBLINK1":"http://www.sonnschein-apo.at","SE_ANNO_CAD_DATA":null}},{"type":"Feature","id":"APOTHEKEOGD.2473453","geometry":{"type":"Point","coordinates":[16.26676981,48.18715105]},"geometry_name":"SHAPE","properties":{"OBJECTID":2473453,"BEZEICHNUNG":"San Vito Apotheke","BEZIRK":13,"STRASSE":"Einsiedeleigasse","ONR":"10","ADRESSE":"13., Einsiedeleigasse 10","TELEFON":"01 877 86 78","FAX":"01 877 86 78 77","EMAIL":"info@sanvito.at","WEBLINK1":null,"SE_ANNO_CAD_DATA":null}},{"type":"Feature","id":"APOTHEKEOGD.2473454","geometry":{"type":"Point","coordinates":[16.30780228,48.20413776]},"geometry_name":"SHAPE","properties":{"OBJECTID":2473454,"BEZEICHNUNG":"Bach Apotheke","BEZIRK":16,"STRASSE":"Steinbruchstraße","ONR":"6","ADRESSE":"16., Steinbruchstraße 6","TELEFON":"01 98 20 900","FAX":"01 98 20 900 20","EMAIL":"kontakt@bachapotheke.at","WEBLINK1":"http://www.bachapotheke.at","SE_ANNO_CAD_DATA":null}},{"type":"Feature","id":"APOTHEKEOGD.2473455","geometry":{"type":"Point","coordinates":[16.276154,48.19177563]},"geometry_name":"SHAPE","properties":{"OBJECTID":2473455,"BEZEICHNUNG":"Apotheke an der Wien","BEZIRK":13,"STRASSE":"Hietzinger Kai","ONR":"143","ADRESSE":"13., Hietzinger Kai 143","TELEFON":"01 890 56 56","FAX":"01 890 56 56 10","EMAIL":"office@apothekeanderwien","WEBLINK1":null,"SE_ANNO_CAD_DATA":null}},{"type":"Feature","id":"APOTHEKEOGD.2473456","geometry":{"type":"Point","coordinates":[16.38435525,48.21854415]},"geometry_name":"SHAPE","properties":{"OBJECTID":2473456,"BEZEICHNUNG":"Apotheke \"Zum Patriarchen\"","BEZIRK":2,"STRASSE":"Blumauergasse","ONR":"15","ADRESSE":"2., Blumauergasse 15","TELEFON":"01 214 22 80","FAX":"01 214 22 80","EMAIL":"patriarch@aewige.at","WEBLINK1":null,"SE_ANNO_CAD_DATA":null}},{"type":"Feature","id":"APOTHEKEOGD.2473457","geometry":{"type":"Point","coordinates":[16.39942095,48.21819591]},"geometry_name":"SHAPE","properties":{"OBJECTID":2473457,"BEZEICHNUNG":"Prater-Apotheke","BEZIRK":2,"STRASSE":"Ausstellungsstraße","ONR":"13","ADRESSE":"2., Ausstellungsstraße 13","TELEFON":"01 728 04 19","FAX":"01 728 04 19","EMAIL":"prater-apotheke@aon.at","WEBLINK1":null,"SE_ANNO_CAD_DATA":null}},{"type":"Feature","id":"APOTHEKEOGD.2473458","geometry":{"type":"Point","coordinates":[16.38552326,48.22350889]},"geometry_name":"SHAPE","properties":{"OBJECTID":2473458,"BEZEICHNUNG":"Schwan-Apotheke","BEZIRK":2,"STRASSE":"Lessinggasse","ONR":"23","ADRESSE":"2., Lessinggasse 23","TELEFON":"01 214 10 86","FAX":"01 214 10 86","EMAIL":null,"WEBLINK1":null,"SE_ANNO_CAD_DATA":null}},{"type":"Feature","id":"APOTHEKEOGD.2473459","geometry":{"type":"Point","coordinates":[16.38437853,48.21439351]},"geometry_name":"SHAPE","properties":{"OBJECTID":2473459,"BEZEICHNUNG":"Apotheke \"Zum guten Hirten\"","BEZIRK":2,"STRASSE":"Praterstraße","ONR":"32","ADRESSE":"2., Praterstraße 32","TELEFON":"01 214 63 35","FAX":"01 214 63 35","EMAIL":"guterhirte@aon.at","WEBLINK1":null,"SE_ANNO_CAD_DATA":null}},{"type":"Feature","id":"APOTHEKEOGD.2473460","geometry":{"type":"Point","coordinates":[16.38099579,48.21729897]},"geometry_name":"SHAPE","properties":{"OBJECTID":2473460,"BEZEICHNUNG":"Bären-Apotheke","BEZIRK":2,"STRASSE":"Taborstraße","ONR":"26","ADRESSE":"2., Taborstraße 26","TELEFON":"01 214 51 11","FAX":"01 214 51 11","EMAIL":"baerenapo@aponet.at","WEBLINK1":null,"SE_ANNO_CAD_DATA":null}},{"type":"Feature","id":"APOTHEKEOGD.2473461","geometry":{"type":"Point","coordinates":[16.3885461,48.21659457]},"geometry_name":"SHAPE","properties":{"OBJECTID":2473461,"BEZEICHNUNG":"Apotheke \"Zur alten Jägerzeile\"","BEZIRK":2,"STRASSE":"Praterstraße","ONR":"66","ADRESSE":"2., Praterstraße 66","TELEFON":"01 214 01 74","FAX":"01 214 01 74","EMAIL":"apo.alte.jaegerzeile@aon.at","WEBLINK1":null,"SE_ANNO_CAD_DATA":null}},{"type":"Feature","id":"APOTHEKEOGD.2473462","geometry":{"type":"Point","coordinates":[16.38207619,48.22205136]},"geometry_name":"SHAPE","properties":{"OBJECTID":2473462,"BEZEICHNUNG":"Apotheke \"Zum heiligen Josef\"","BEZIRK":2,"STRASSE":"Taborstraße","ONR":"63","ADRESSE":"2., Taborstraße 63","TELEFON":"01 216 30 49","FAX":"01 216 30 49","EMAIL":"office@apo-hljosef.at","WEBLINK1":null,"SE_ANNO_CAD_DATA":null}},{"type":"Feature","id":"APOTHEKEOGD.2473463","geometry":{"type":"Point","coordinates":[16.39985699,48.22541982]},"geometry_name":"SHAPE","properties":{"OBJECTID":2473463,"BEZEICHNUNG":"Christinen-Apotheke","BEZIRK":2,"STRASSE":"Vorgartenstraße","ONR":"132","ADRESSE":"2., Vorgartenstraße 132","TELEFON":"01 218 65 31","FAX":"01 218 65 31","EMAIL":"christinen.apotheke@aon.at","WEBLINK1":null,"SE_ANNO_CAD_DATA":null}},{"type":"Feature","id":"APOTHEKEOGD.2478769","geometry":{"type":"Point","coordinates":[16.44956611,48.21946158]},"geometry_name":"SHAPE","properties":{"OBJECTID":2478769,"BEZEICHNUNG":"Apotheke U2-Stadlau","BEZIRK":22,"STRASSE":"Kaisermühlenstraße","ONR":"26/3","ADRESSE":"22., Kaisermühlenstraße 26/3/301","TELEFON":"97 49 544","FAX":"97 49 544","EMAIL":"info@apothekeu2stadlau.at","WEBLINK1":null,"SE_ANNO_CAD_DATA":null}},{"type":"Feature","id":"APOTHEKEOGD.2478770","geometry":{"type":"Point","coordinates":[16.3360526,48.18538018]},"geometry_name":"SHAPE","properties":{"OBJECTID":2478770,"BEZEICHNUNG":"Apotheke \"Zum heiligen Josef\"","BEZIRK":12,"STRASSE":"Rechte Wienzeile","ONR":"207/3","ADRESSE":"12., Rechte Wienzeile 207/3","TELEFON":"01 813 10 68","FAX":"01 813 10 68","EMAIL":"apo.hejo@aon.at","WEBLINK1":null,"SE_ANNO_CAD_DATA":null}},{"type":"Feature","id":"APOTHEKEOGD.2478771","geometry":{"type":"Point","coordinates":[16.39485586,48.23359079]},"geometry_name":"SHAPE","properties":{"OBJECTID":2478771,"BEZEICHNUNG":"Apotheke am Handelskai","BEZIRK":2,"STRASSE":"Handelskai","ONR":"130","ADRESSE":"2., Handelskai 130","TELEFON":"01 212 55 73","FAX":"01 212 55 73 9","EMAIL":"apotheke.handelskai@a1business.at","WEBLINK1":null,"SE_ANNO_CAD_DATA":null}},{"type":"Feature","id":"APOTHEKEOGD.2478772","geometry":{"type":"Point","coordinates":[16.32700248,48.21350973]},"geometry_name":"SHAPE","properties":{"OBJECTID":2478772,"BEZEICHNUNG":"Neulerchenfelder-Apotheke","BEZIRK":17,"STRASSE":"Ottakringer Straße","ONR":"98","ADRESSE":"17., Ottakringer Straße 98","TELEFON":"01 486 36 16","FAX":"01 486 36 16","EMAIL":"neulerchenfelder.apo@aon.at","WEBLINK1":null,"SE_ANNO_CAD_DATA":null}},{"type":"Feature","id":"APOTHEKEOGD.2478773","geometry":{"type":"Point","coordinates":[16.50028515,48.22413812]},"geometry_name":"SHAPE","properties":{"OBJECTID":2478773,"BEZEICHNUNG":"Seestadt Apotheke","BEZIRK":22,"STRASSE":"Maria-Tusch-Straße","ONR":"12","ADRESSE":"22., Maria-Tusch-Straße 12","TELEFON":"01 210 69 84","FAX":"01 210 69 84-89","EMAIL":"office@seestadt-apotheke.at","WEBLINK1":null,"SE_ANNO_CAD_DATA":null}},{"type":"Feature","id":"APOTHEKEOGD.2478774","geometry":{"type":"Point","coordinates":[16.35946091,48.16640089]},"geometry_name":"SHAPE","properties":{"OBJECTID":2478774,"BEZEICHNUNG":"Rax-Apotheke","BEZIRK":10,"STRASSE":"Raxstraße","ONR":"30","ADRESSE":"10., Raxstraße 30","TELEFON":"600 80 00","FAX":"600 80 00 15","EMAIL":"office@rax-apotheke.at","WEBLINK1":null,"SE_ANNO_CAD_DATA":null}},{"type":"Feature","id":"APOTHEKEOGD.2478775","geometry":{"type":"Point","coordinates":[16.45264052,48.26337155]},"geometry_name":"SHAPE","properties":{"OBJECTID":2478775,"BEZEICHNUNG":"CITYGATE Apotheke","BEZIRK":21,"STRASSE":"Wagramer Straße","ONR":"195/47","ADRESSE":"21., Wagramer Straße 195/47","TELEFON":"01 916 61 20","FAX":"01 916 61 20 20","EMAIL":"info@citygate-apotheke.at","WEBLINK1":null,"SE_ANNO_CAD_DATA":null}},{"type":"Feature","id":"APOTHEKEOGD.2478776","geometry":{"type":"Point","coordinates":[16.31855608,48.14129266]},"geometry_name":"SHAPE","properties":{"OBJECTID":2478776,"BEZEICHNUNG":"Balance Apotheke","BEZIRK":23,"STRASSE":"Meischlgasse","ONR":"15/4/1","ADRESSE":"23., Meischlgasse 15/4/1","TELEFON":"01 66 22 024","FAX":"01 66 22 024-20","EMAIL":"office@balance-apotheke.at","WEBLINK1":null,"SE_ANNO_CAD_DATA":null}},{"type":"Feature","id":"APOTHEKEOGD.2478777","geometry":{"type":"Point","coordinates":[16.41428024,48.21632684]},"geometry_name":"SHAPE","properties":{"OBJECTID":2478777,"BEZEICHNUNG":"Apotheke für Dich","BEZIRK":2,"STRASSE":"Engerthstraße","ONR":"228","ADRESSE":"2., Engerthstraße 228","TELEFON":"01 720 20 71","FAX":"01 720 20 71 13","EMAIL":"info@apofürdich.at","WEBLINK1":null,"SE_ANNO_CAD_DATA":null}},{"type":"Feature","id":"APOTHEKEOGD.2478778","geometry":{"type":"Point","coordinates":[16.3917473,48.22787825]},"geometry_name":"SHAPE","properties":{"OBJECTID":2478778,"BEZEICHNUNG":"Apotheke Nordbahnviertel","BEZIRK":2,"STRASSE":"Bruno-Marek-Allee","ONR":"6","ADRESSE":"2., Bruno-Marek-Allee 6","TELEFON":"01 393 31 31","FAX":"01 393 31 31 15","EMAIL":"service@apo-nordbahnviertel.at","WEBLINK1":null,"SE_ANNO_CAD_DATA":null}},{"type":"Feature","id":"APOTHEKEOGD.2478779","geometry":{"type":"Point","coordinates":[16.40885454,48.16640811]},"geometry_name":"SHAPE","properties":{"OBJECTID":2478779,"BEZEICHNUNG":"apo 11","BEZIRK":11,"STRASSE":"Gadnergasse","ONR":"2-4","ADRESSE":"11, Gadnergasse 2-4","TELEFON":"01 743 37 46","FAX":"01 743 37 46 89","EMAIL":"info@apo11.at","WEBLINK1":null,"SE_ANNO_CAD_DATA":null}},{"type":"Feature","id":"APOTHEKEOGD.2478780","geometry":{"type":"Point","coordinates":[16.42093684,48.23474673]},"geometry_name":"SHAPE","properties":{"OBJECTID":2478780,"BEZEICHNUNG":"Apotheke IZD-Tower","BEZIRK":22,"STRASSE":"Wagramer Straße","ONR":"19","ADRESSE":"22., Wagramer Straße 19","TELEFON":"01 263 20 30","FAX":"01 263 20 30/4","EMAIL":"kontakt@apotheke-izd-tower.at","WEBLINK1":null,"SE_ANNO_CAD_DATA":null}},{"type":"Feature","id":"APOTHEKEOGD.2478781","geometry":{"type":"Point","coordinates":[16.4640392,48.2198975]},"geometry_name":"SHAPE","properties":{"OBJECTID":2478781,"BEZEICHNUNG":"Apo22 beim Donauspital","BEZIRK":22,"STRASSE":"Zschokkegasse","ONR":"140","ADRESSE":"22., Zschokkegasse 140","TELEFON":"01 280 10 03","FAX":"01 280 10 03/30","EMAIL":"office@apo22.at","WEBLINK1":null,"SE_ANNO_CAD_DATA":null}},{"type":"Feature","id":"APOTHEKEOGD.2478782","geometry":{"type":"Point","coordinates":[16.30658068,48.22019489]},"geometry_name":"SHAPE","properties":{"OBJECTID":2478782,"BEZEICHNUNG":"Sandleiten-Apotheke","BEZIRK":16,"STRASSE":"Nietzscheplatz","ONR":"4","ADRESSE":"16., Nietzscheplatz 4","TELEFON":"01 486 21 43","FAX":"01 486 21 43","EMAIL":"sandleiten-apo@aponet.at","WEBLINK1":"http://www.aponet.at/sandleitenapo","SE_ANNO_CAD_DATA":null}},{"type":"Feature","id":"APOTHEKEOGD.2478783","geometry":{"type":"Point","coordinates":[16.33558294,48.20399659]},"geometry_name":"SHAPE","properties":{"OBJECTID":2478783,"BEZEICHNUNG":"Die Apotheke in der Lugner City","BEZIRK":15,"STRASSE":"Gablenzgasse","ONR":"5-14","ADRESSE":"15., Gablenzgasse 5-13, UG 9","TELEFON":"01/786 34 27","FAX":"01/786 34 27-30","EMAIL":"apo@apolugnercity.at","WEBLINK1":null,"SE_ANNO_CAD_DATA":null}},{"type":"Feature","id":"APOTHEKEOGD.2478784","geometry":{"type":"Point","coordinates":[16.37719543,48.23163406]},"geometry_name":"SHAPE","properties":{"OBJECTID":2478784,"BEZEICHNUNG":"Animo Apotheke","BEZIRK":2,"STRASSE":"Wallensteinstraße","ONR":"61","ADRESSE":"2., Wallensteinstraße 61","TELEFON":"01 280 80 40","FAX":"01/ 80 80 40 20","EMAIL":"office@animo-apotheke.at","WEBLINK1":"https://www.animo-apotheke.at","SE_ANNO_CAD_DATA":null}},{"type":"Feature","id":"APOTHEKEOGD.2478758","geometry":{"type":"Point","coordinates":[16.36647293,48.166732]},"geometry_name":"SHAPE","properties":{"OBJECTID":2478758,"BEZEICHNUNG":"Heilfried-Apotheke","BEZIRK":10,"STRASSE":"Van der Nüll-Gasse","ONR":"110","ADRESSE":"10., Van der Nüll-Gasse 110","TELEFON":"01 604 44 80","FAX":"01 604 44 80","EMAIL":"apotheke@heilfriedapotheke.at","WEBLINK1":null,"SE_ANNO_CAD_DATA":null}},{"type":"Feature","id":"APOTHEKEOGD.2478759","geometry":{"type":"Point","coordinates":[16.3826022,48.15339953]},"geometry_name":"SHAPE","properties":{"OBJECTID":2478759,"BEZEICHNUNG":"Per-Albin-Hansson-Apotheke","BEZIRK":10,"STRASSE":"Hansson-Zentrum","ONR":"1A","ADRESSE":"10., Hansson-Zentrum 1A,Favoritenstr.239, Favoritenstr. 239","TELEFON":"01 688 23 57","FAX":"01 688 23 57","EMAIL":"office@hansson-apotheke.at","WEBLINK1":null,"SE_ANNO_CAD_DATA":null}},{"type":"Feature","id":"APOTHEKEOGD.2478760","geometry":{"type":"Point","coordinates":[16.37052921,48.16845064]},"geometry_name":"SHAPE","properties":{"OBJECTID":2478760,"BEZEICHNUNG":"Verdi-Apotheke","BEZIRK":10,"STRASSE":"Laxenburger Straße","ONR":"123-125","ADRESSE":"10., Laxenburger Straße 123-125","TELEFON":"01 604 12 44","FAX":"01 604 12 44","EMAIL":"office@verdi-apotheke.at","WEBLINK1":"http://members.chello.at/verdi-apotheke/","SE_ANNO_CAD_DATA":null}},{"type":"Feature","id":"APOTHEKEOGD.2478761","geometry":{"type":"Point","coordinates":[16.41446343,48.17581321]},"geometry_name":"SHAPE","properties":{"OBJECTID":2478761,"BEZEICHNUNG":"Apotheke \"Zur Mariahilf\"","BEZIRK":11,"STRASSE":"Simmeringer Hauptstraße","ONR":"76","ADRESSE":"11., Simmeringer Hauptstraße 76","TELEFON":"01 749 13 88","FAX":"01 749 13 88","EMAIL":"apo.mariahilf@inode.at","WEBLINK1":null,"SE_ANNO_CAD_DATA":null}},{"type":"Feature","id":"APOTHEKEOGD.2478762","geometry":{"type":"Point","coordinates":[16.46608671,48.15481315]},"geometry_name":"SHAPE","properties":{"OBJECTID":2478762,"BEZEICHNUNG":"Regenbogenapotheke \"Am Leberberg\"","BEZIRK":11,"STRASSE":"Etrichstraße / Mühlsangergasse","ONR":null,"ADRESSE":"11., Etrichstraße 34","TELEFON":"01 767 08 45","FAX":"01 767 08 45","EMAIL":"info@regenbogen-apotheke.at","WEBLINK1":"http://www.regenbogen-apotheke.at","SE_ANNO_CAD_DATA":null}},{"type":"Feature","id":"APOTHEKEOGD.2478763","geometry":{"type":"Point","coordinates":[16.42176342,48.16518145]},"geometry_name":"SHAPE","properties":{"OBJECTID":2478763,"BEZEICHNUNG":"Lory-Apotheke","BEZIRK":11,"STRASSE":"Lorystraße","ONR":"85-87","ADRESSE":"11., Lorystraße 85 - 87","TELEFON":"01 769 06 66","FAX":"01 769 06 66","EMAIL":"office@lory-apotheke.at","WEBLINK1":null,"SE_ANNO_CAD_DATA":null}},{"type":"Feature","id":"APOTHEKEOGD.2478764","geometry":{"type":"Point","coordinates":[16.32526772,48.16117926]},"geometry_name":"SHAPE","properties":{"OBJECTID":2478764,"BEZEICHNUNG":"Apotheke \"Am Schöpfwerk\"","BEZIRK":12,"STRASSE":"Am Schöpfwerk","ONR":"31","ADRESSE":"12., Am Schöpfwerk 31/Gesundheitszentrum, Gesundheitszentrum","TELEFON":"01 667 62 21","FAX":"01 662 18 00","EMAIL":"apotheke@schoepfwerk.at","WEBLINK1":"http://www.schoepfwerk-apo.at","SE_ANNO_CAD_DATA":null}},{"type":"Feature","id":"APOTHEKEOGD.2478765","geometry":{"type":"Point","coordinates":[16.48681689,48.24110222]},"geometry_name":"SHAPE","properties":{"OBJECTID":2478765,"BEZEICHNUNG":"Berres-Apotheke","BEZIRK":22,"STRASSE":"Berresgasse","ONR":"17","ADRESSE":"22., Berresgasse 17","TELEFON":"01 537 44 44","FAX":"01 537 44 44 99","EMAIL":"office@berres-apotheke.at","WEBLINK1":"https://www.berres-apotheke.at","SE_ANNO_CAD_DATA":null}},{"type":"Feature","id":"APOTHEKEOGD.2478766","geometry":{"type":"Point","coordinates":[16.4777812,48.2130149]},"geometry_name":"SHAPE","properties":{"OBJECTID":2478766,"BEZEICHNUNG":"Biberhaufen Apotheke","BEZIRK":22,"STRASSE":"Wulzendorfstraße","ONR":"103","ADRESSE":"22., Wulzendorfstraße 103/1","TELEFON":"01 2080999","FAX":null,"EMAIL":"office@biberhaufen-apo.at","WEBLINK1":"https://www.biberhaufen-apo.at","SE_ANNO_CAD_DATA":null}},{"type":"Feature","id":"APOTHEKEOGD.2478767","geometry":{"type":"Point","coordinates":[16.24907623,48.21494493]},"geometry_name":"SHAPE","properties":{"OBJECTID":2478767,"BEZEICHNUNG":"Stadtfuchs Apotheke","BEZIRK":14,"STRASSE":"Hüttelbergstraße","ONR":"75/1","ADRESSE":"14., Hüttelbergstraße 75/1","TELEFON":"01 361 83 33","FAX":null,"EMAIL":"office@stadtfuchsapotheke.at","WEBLINK1":null,"SE_ANNO_CAD_DATA":null}},{"type":"Feature","id":"APOTHEKEOGD.2478768","geometry":{"type":"Point","coordinates":[16.43162706,48.28651043]},"geometry_name":"SHAPE","properties":{"OBJECTID":2478768,"BEZEICHNUNG":"Artemis Apotheke","BEZIRK":21,"STRASSE":"Gerasdorfer Straße","ONR":"139","ADRESSE":"21., Gerasdorfer Straße 139","TELEFON":"01 290 36 25","FAX":"290 36 51","EMAIL":"info@artemis-apotheke.at","WEBLINK1":null,"SE_ANNO_CAD_DATA":null}},{"type":"Feature","id":"APOTHEKEOGD.2473464","geometry":{"type":"Point","coordinates":[16.3926057,48.19701836]},"geometry_name":"SHAPE","properties":{"OBJECTID":2473464,"BEZEICHNUNG":"Segen-Gottes-Apotheke","BEZIRK":3,"STRASSE":"Boerhaavegasse","ONR":"7","ADRESSE":"3., Boerhaavegasse 7","TELEFON":"01 712 52 91","FAX":"01 712 52 91","EMAIL":"zastiera@aon.at","WEBLINK1":null,"SE_ANNO_CAD_DATA":null}},{"type":"Feature","id":"APOTHEKEOGD.2473465","geometry":{"type":"Point","coordinates":[16.38756357,48.1987995]},"geometry_name":"SHAPE","properties":{"OBJECTID":2473465,"BEZEICHNUNG":"Neuling-Apotheke","BEZIRK":3,"STRASSE":"Ungargasse","ONR":"51","ADRESSE":"3., Ungargasse 51","TELEFON":"01 712 62 17","FAX":"01 712 62 17","EMAIL":"neuling-apotheke@telering.at","WEBLINK1":"http://neuling.apo.or.at","SE_ANNO_CAD_DATA":null}},{"type":"Feature","id":"APOTHEKEOGD.2473466","geometry":{"type":"Point","coordinates":[16.38092775,48.19837923]},"geometry_name":"SHAPE","properties":{"OBJECTID":2473466,"BEZEICHNUNG":"Salesianer-Apotheke","BEZIRK":3,"STRASSE":"Salesianergasse","ONR":"14","ADRESSE":"3., Salesianergasse 14","TELEFON":"01 713 14 59","FAX":"01 713 14 59","EMAIL":"salesianer.apotheke@aponet.at","WEBLINK1":"http://www.salesianerapotheke.at","SE_ANNO_CAD_DATA":null}},{"type":"Feature","id":"APOTHEKEOGD.2473467","geometry":{"type":"Point","coordinates":[16.42047156,48.25328673]},"geometry_name":"SHAPE","properties":{"OBJECTID":2473467,"BEZEICHNUNG":"Donau Apotheke","BEZIRK":21,"STRASSE":"Donaufelder Straße","ONR":"99","ADRESSE":"21., Donaufelder Straße 99","TELEFON":"01 256 97 97","FAX":"01 256 97 97","EMAIL":"donau-apo.wien@aponet.at","WEBLINK1":null,"SE_ANNO_CAD_DATA":null}},{"type":"Feature","id":"APOTHEKEOGD.2473468","geometry":{"type":"Point","coordinates":[16.24465474,48.13773845]},"geometry_name":"SHAPE","properties":{"OBJECTID":2473468,"BEZEICHNUNG":"APO 23 Kalksburg","BEZIRK":23,"STRASSE":"Kalksburg-Kirchenplatz","ONR":"5","ADRESSE":"23., Kalksburg-Kirchenplatz 5","TELEFON":"01 890 62 65","FAX":"01 890 62 65","EMAIL":"info@apo23.at","WEBLINK1":"http://www.apo23.at","SE_ANNO_CAD_DATA":null}},{"type":"Feature","id":"APOTHEKEOGD.2473469","geometry":{"type":"Point","coordinates":[16.41273319,48.28295237]},"geometry_name":"SHAPE","properties":{"OBJECTID":2473469,"BEZEICHNUNG":"Apotheke \"Zum Weinstock\"","BEZIRK":21,"STRASSE":"Brünner Straße","ONR":"180","ADRESSE":"21., Brünner Straße 180","TELEFON":"01 292 97 50","FAX":"01 2929750-30","EMAIL":"apotheke@zumweinstock.at","WEBLINK1":null,"SE_ANNO_CAD_DATA":null}},{"type":"Feature","id":"APOTHEKEOGD.2473470","geometry":{"type":"Point","coordinates":[16.39973903,48.26750356]},"geometry_name":"SHAPE","properties":{"OBJECTID":2473470,"BEZEICHNUNG":"SCN-Apotheke","BEZIRK":21,"STRASSE":"Ignaz Köck-Straße","ONR":"1-7","ADRESSE":"21., Ignaz Köck-Straße 1-7","TELEFON":"01 271 90 31","FAX":"01 271 90 31","EMAIL":"scn-apotheke@utanet.at","WEBLINK1":null,"SE_ANNO_CAD_DATA":null}},{"type":"Feature","id":"APOTHEKEOGD.2473471","geometry":{"type":"Point","coordinates":[16.48915165,48.21685587]},"geometry_name":"SHAPE","properties":{"OBJECTID":2473471,"BEZEICHNUNG":"Apotheke \"Zum Löwen von Aspern\"","BEZIRK":22,"STRASSE":"Groß Enzersdorfer Straße","ONR":"4","ADRESSE":"22., Groß Enzersdorfer Straße 4","TELEFON":"01 282 13 82","FAX":"01 282 13 82","EMAIL":"office@apo-aspern.at","WEBLINK1":"http://www.apo-aspern.at","SE_ANNO_CAD_DATA":null}},{"type":"Feature","id":"APOTHEKEOGD.2473472","geometry":{"type":"Point","coordinates":[16.42191917,48.22710915]},"geometry_name":"SHAPE","properties":{"OBJECTID":2473472,"BEZEICHNUNG":"St. Hubertus-Apotheke Kaisermühlen","BEZIRK":22,"STRASSE":"Schüttaustraße","ONR":"54","ADRESSE":"22., Schüttaustraße 54","TELEFON":"01 263 35 51","FAX":"01 263 35 51","EMAIL":"info@apotheke22.at","WEBLINK1":null,"SE_ANNO_CAD_DATA":null}},{"type":"Feature","id":"APOTHEKEOGD.2478609","geometry":{"type":"Point","coordinates":[16.45394215,48.2248191]},"geometry_name":"SHAPE","properties":{"OBJECTID":2478609,"BEZEICHNUNG":"Apotheke \"Zur Madonna\"","BEZIRK":22,"STRASSE":"Langobardenstraße","ONR":"16","ADRESSE":"22., Langobardenstraße 16","TELEFON":"01 282 22 76","FAX":"01 282 22 76","EMAIL":"madonna@aponet.at","WEBLINK1":null,"SE_ANNO_CAD_DATA":null}},{"type":"Feature","id":"APOTHEKEOGD.2478610","geometry":{"type":"Point","coordinates":[16.44574778,48.23264237]},"geometry_name":"SHAPE","properties":{"OBJECTID":2478610,"BEZEICHNUNG":"Apotheke Neu Kagran","BEZIRK":22,"STRASSE":"Erzherzog-Karl-Straße","ONR":"84-88","ADRESSE":"22., Erzherzog-Karl-Straße 84-88","TELEFON":"01 202 58 02","FAX":"01 202 58 02","EMAIL":"apo@apo-neukagran.at","WEBLINK1":null,"SE_ANNO_CAD_DATA":null}},{"type":"Feature","id":"APOTHEKEOGD.2478611","geometry":{"type":"Point","coordinates":[16.44398935,48.25001799]},"geometry_name":"SHAPE","properties":{"OBJECTID":2478611,"BEZEICHNUNG":"St. Georg-Apotheke","BEZIRK":22,"STRASSE":"Kagraner Platz","ONR":"1-4/Top 1","ADRESSE":"22., Kagraner Platz 1-4","TELEFON":"01 203 31 83","FAX":"01 203 31 83","EMAIL":"St.Georgs.Apotheke@aon.at","WEBLINK1":null,"SE_ANNO_CAD_DATA":null}},{"type":"Feature","id":"APOTHEKEOGD.2478612","geometry":{"type":"Point","coordinates":[16.47230158,48.23472154]},"geometry_name":"SHAPE","properties":{"OBJECTID":2478612,"BEZEICHNUNG":"Nordost-Apotheke","BEZIRK":22,"STRASSE":"Emichgasse","ONR":"8","ADRESSE":"22., Emichgasse 8","TELEFON":"01 282 51 37","FAX":"01 282 51 37","EMAIL":"office@nordost-apotheke.at","WEBLINK1":null,"SE_ANNO_CAD_DATA":null}},{"type":"Feature","id":"APOTHEKEOGD.2478613","geometry":{"type":"Point","coordinates":[16.43820868,48.24139751]},"geometry_name":"SHAPE","properties":{"OBJECTID":2478613,"BEZEICHNUNG":"Apotheke Donauzentrum","BEZIRK":22,"STRASSE":"Curiegasse","ONR":"5","ADRESSE":"22., Curiegasse 5, Bernoullistraße 1","TELEFON":"01 203 36 88","FAX":"01 203 36 88","EMAIL":"info@pillendreher.at","WEBLINK1":"http://www.pillendreher.at","SE_ANNO_CAD_DATA":null}},{"type":"Feature","id":"APOTHEKEOGD.2478614","geometry":{"type":"Point","coordinates":[16.45126522,48.25842793]},"geometry_name":"SHAPE","properties":{"OBJECTID":2478614,"BEZEICHNUNG":"Rennbahn-Apotheke","BEZIRK":22,"STRASSE":"Rennbahnweg","ONR":"27","ADRESSE":"22., Rennbahnweg 27, Lokal 14","TELEFON":"01 258 15 50","FAX":"01 258 15 50","EMAIL":"rennbahn-apotheke@chello.at","WEBLINK1":null,"SE_ANNO_CAD_DATA":null}},{"type":"Feature","id":"APOTHEKEOGD.2478615","geometry":{"type":"Point","coordinates":[16.44131489,48.26049833]},"geometry_name":"SHAPE","properties":{"OBJECTID":2478615,"BEZEICHNUNG":"Markus-Apotheke","BEZIRK":22,"STRASSE":"Alfred-Kubin-Platz","ONR":"3","ADRESSE":"22., Alfred-Kubin-Platz 3","TELEFON":"01 258 31 06","FAX":"01 258 31 06","EMAIL":"info@markus-apotheke.at","WEBLINK1":null,"SE_ANNO_CAD_DATA":null}},{"type":"Feature","id":"APOTHEKEOGD.2478616","geometry":{"type":"Point","coordinates":[16.52434644,48.21450093]},"geometry_name":"SHAPE","properties":{"OBJECTID":2478616,"BEZEICHNUNG":"Raphael-Donner-Apotheke","BEZIRK":22,"STRASSE":"Esslinger Hauptstraße","ONR":"84-86","ADRESSE":"22., Esslinger Hauptstraße 84-86","TELEFON":"01 774 67 70","FAX":"01 774 67 70","EMAIL":"raphael.donner.apotheke@aon.at","WEBLINK1":null,"SE_ANNO_CAD_DATA":null}},{"type":"Feature","id":"APOTHEKEOGD.2478617","geometry":{"type":"Point","coordinates":[16.4826906,48.23808832]},"geometry_name":"SHAPE","properties":{"OBJECTID":2478617,"BEZEICHNUNG":"Alpha-Apotheke","BEZIRK":22,"STRASSE":"Quadenstraße","ONR":"124","ADRESSE":"22., Quadenstraße 124","TELEFON":"01 280 02 22","FAX":"01 280 02 22","EMAIL":"anfrage@alpha-apotheke.at","WEBLINK1":"http://www.alpha-apotheke.at","SE_ANNO_CAD_DATA":null}},{"type":"Feature","id":"APOTHEKEOGD.2478618","geometry":{"type":"Point","coordinates":[16.47121014,48.21830584]},"geometry_name":"SHAPE","properties":{"OBJECTID":2478618,"BEZEICHNUNG":"Langobarden-Apotheke","BEZIRK":22,"STRASSE":"Langobardenstraße","ONR":"126/1","ADRESSE":"22., Langobardenstraße 126/1","TELEFON":"01 285 50 20","FAX":"01 285 50 20","EMAIL":"Langobardenapotheke@aon.at","WEBLINK1":null,"SE_ANNO_CAD_DATA":null}},{"type":"Feature","id":"APOTHEKEOGD.2478619","geometry":{"type":"Point","coordinates":[16.43179862,48.25121789]},"geometry_name":"SHAPE","properties":{"OBJECTID":2478619,"BEZEICHNUNG":"Donaufelder-Apotheke","BEZIRK":22,"STRASSE":"Donaufelder Straße","ONR":"177a","ADRESSE":"22., Donaufelder Straße 177 a","TELEFON":"01 256 55 11","FAX":"01 256 55 11","EMAIL":"donaufelder.apotheke@aon.at","WEBLINK1":null,"SE_ANNO_CAD_DATA":null}},{"type":"Feature","id":"APOTHEKEOGD.2478620","geometry":{"type":"Point","coordinates":[16.41427693,48.23285854]},"geometry_name":"SHAPE","properties":{"OBJECTID":2478620,"BEZEICHNUNG":"Apotheke im Andromeda Tower","BEZIRK":22,"STRASSE":"Donau-City-Straße","ONR":"6","ADRESSE":"22., Donau-City-Straße 6","TELEFON":"01 263 78 78","FAX":"01 263 78 78","EMAIL":"androapoparf@aon.at","WEBLINK1":"http://www.andromeda-apotheke.at","SE_ANNO_CAD_DATA":null}},{"type":"Feature","id":"APOTHEKEOGD.2478621","geometry":{"type":"Point","coordinates":[16.46331201,48.24811678]},"geometry_name":"SHAPE","properties":{"OBJECTID":2478621,"BEZEICHNUNG":"Apotheke Donaustadt","BEZIRK":22,"STRASSE":"Gewerbeparkstraße","ONR":"2/2","ADRESSE":"22., Gewerbeparkstraße 2/2","TELEFON":"01 734 92 00","FAX":"01 734 92 00 - 30","EMAIL":"post@dieapothekerei.at","WEBLINK1":null,"SE_ANNO_CAD_DATA":null}},{"type":"Feature","id":"APOTHEKEOGD.2478622","geometry":{"type":"Point","coordinates":[16.28184977,48.13420004]},"geometry_name":"SHAPE","properties":{"OBJECTID":2478622,"BEZEICHNUNG":"Apotheke \"Zur Mariahilf\"","BEZIRK":23,"STRASSE":"Perchtoldsdorfer Straße","ONR":"5","ADRESSE":"23., Perchtoldsdorfer Straße 5","TELEFON":"01 865 93 10","FAX":"01 865 93 10","EMAIL":"bestellung@apo-mariahilf.at","WEBLINK1":null,"SE_ANNO_CAD_DATA":null}},{"type":"Feature","id":"APOTHEKEOGD.2478623","geometry":{"type":"Point","coordinates":[16.27897897,48.16226957]},"geometry_name":"SHAPE","properties":{"OBJECTID":2478623,"BEZEICHNUNG":"Hermes-Apotheke","BEZIRK":23,"STRASSE":"Speisinger Straße","ONR":"119","ADRESSE":"23., Speisinger Straße 119","TELEFON":"01 888 21 52","FAX":"01 888 21 52","EMAIL":"hermes.apotheke@speed.at","WEBLINK1":null,"SE_ANNO_CAD_DATA":null}},{"type":"Feature","id":"APOTHEKEOGD.2478624","geometry":{"type":"Point","coordinates":[16.26007843,48.13331696]},"geometry_name":"SHAPE","properties":{"OBJECTID":2478624,"BEZEICHNUNG":"Apotheke Rodaun","BEZIRK":23,"STRASSE":"Ketzergasse","ONR":"368","ADRESSE":"23., Ketzergasse 368","TELEFON":"01 888 41 70","FAX":"01 888 41 70","EMAIL":"office@aporodaun.at","WEBLINK1":null,"SE_ANNO_CAD_DATA":null}},{"type":"Feature","id":"APOTHEKEOGD.2478625","geometry":{"type":"Point","coordinates":[16.33576669,48.15022089]},"geometry_name":"SHAPE","properties":{"OBJECTID":2478625,"BEZEICHNUNG":"Apotheke \"Zur Mariahilf\"","BEZIRK":23,"STRASSE":"Triester Straße","ONR":"128","ADRESSE":"23., Triester Straße 128","TELEFON":"01 667 16 61","FAX":"01 667 16 61","EMAIL":"apotheke.inzersdorf@aon.at","WEBLINK1":null,"SE_ANNO_CAD_DATA":null}},{"type":"Feature","id":"APOTHEKEOGD.2478626","geometry":{"type":"Point","coordinates":[16.31837378,48.15172715]},"geometry_name":"SHAPE","properties":{"OBJECTID":2478626,"BEZEICHNUNG":"Steinsee-Apotheke","BEZIRK":23,"STRASSE":"Anton-Baumgartner-Straße","ONR":"40/8","ADRESSE":"23., Anton-Baumgartner-Str.40/Top 8","TELEFON":"01 667 26 88","FAX":"01 667 26 88","EMAIL":"office@steinsee-apotheke.at","WEBLINK1":null,"SE_ANNO_CAD_DATA":null}},{"type":"Feature","id":"APOTHEKEOGD.2478627","geometry":{"type":"Point","coordinates":[16.28491609,48.1464616]},"geometry_name":"SHAPE","properties":{"OBJECTID":2478627,"BEZEICHNUNG":"Birken Apotheke","BEZIRK":23,"STRASSE":"Khemetergasse","ONR":"8","ADRESSE":"23., Khemetergasse 8","TELEFON":"01 888 51 44","FAX":"01 888 51 44","EMAIL":"birkenapotheke@aon.at","WEBLINK1":null,"SE_ANNO_CAD_DATA":null}},{"type":"Feature","id":"APOTHEKEOGD.2478628","geometry":{"type":"Point","coordinates":[16.29586759,48.14650886]},"geometry_name":"SHAPE","properties":{"OBJECTID":2478628,"BEZEICHNUNG":"Apotheke Atzgersdorf","BEZIRK":23,"STRASSE":"Levasseurgasse","ONR":"2","ADRESSE":"23., Levasseurgasse 2","TELEFON":"01 869 03 98","FAX":"01 869 03 98","EMAIL":"nikipollak@gmx.at","WEBLINK1":"http://www.apotheke-atzgersdorf.at","SE_ANNO_CAD_DATA":null}},{"type":"Feature","id":"APOTHEKEOGD.2478629","geometry":{"type":"Point","coordinates":[16.31468537,48.15105023]},"geometry_name":"SHAPE","properties":{"OBJECTID":2478629,"BEZEICHNUNG":"Apotheke \"Alt-Erlaa\"","BEZIRK":23,"STRASSE":"A.Baumgartner-Str.","ONR":"44","ADRESSE":"23., Anton Baumgartner Strasse 44 - Top 37B, Kaufp. Top10","TELEFON":"01 665 06 62","FAX":"01 665 06 62","EMAIL":"apo.alterlaa@utanet.at","WEBLINK1":null,"SE_ANNO_CAD_DATA":null}},{"type":"Feature","id":"APOTHEKEOGD.2478630","geometry":{"type":"Point","coordinates":[16.28961494,48.13901074]},"geometry_name":"SHAPE","properties":{"OBJECTID":2478630,"BEZEICHNUNG":"\"Meine Apotheke\"","BEZIRK":23,"STRASSE":"Breitenfurter Straße","ONR":"365","ADRESSE":"23., Breitenfurter Straße 365","TELEFON":"01 867 44 55","FAX":"01 867 44 55","EMAIL":"fachinfo@meine-apo.at","WEBLINK1":"http://www.meine-apo.at","SE_ANNO_CAD_DATA":null}},{"type":"Feature","id":"APOTHEKEOGD.2478631","geometry":{"type":"Point","coordinates":[16.31018284,48.14870897]},"geometry_name":"SHAPE","properties":{"OBJECTID":2478631,"BEZEICHNUNG":"Apotheke in der Wiesen","BEZIRK":23,"STRASSE":"Erlaaer Platz","ONR":"1","ADRESSE":"23., Erlaaer Platz 1","TELEFON":"01 662 73 00","FAX":"01 662 73 00","EMAIL":"office@apo-wiesen.at","WEBLINK1":null,"SE_ANNO_CAD_DATA":null}},{"type":"Feature","id":"APOTHEKEOGD.2478632","geometry":{"type":"Point","coordinates":[16.30776537,48.12764323]},"geometry_name":"SHAPE","properties":{"OBJECTID":2478632,"BEZEICHNUNG":"Kristall Apotheke","BEZIRK":23,"STRASSE":"Ketzergasse","ONR":"97","ADRESSE":"23., Ketzergasse 97","TELEFON":"01 869 45 38","FAX":"01 869 45 38","EMAIL":"office@kristallapo.at","WEBLINK1":"http://www.kristallapo.at","SE_ANNO_CAD_DATA":null}},{"type":"Feature","id":"APOTHEKEOGD.2478633","geometry":{"type":"Point","coordinates":[16.29095157,48.15165322]},"geometry_name":"SHAPE","properties":{"OBJECTID":2478633,"BEZEICHNUNG":"Vital-Apotheke","BEZIRK":23,"STRASSE":"Gatterederstraße","ONR":"9","ADRESSE":"23., Gatterederstraße 9","TELEFON":"01 886 03 23","FAX":"01 886 03 23","EMAIL":"info@vital-apotheke.at","WEBLINK1":"http://www.vital-apotheke.at","SE_ANNO_CAD_DATA":null}},{"type":"Feature","id":"APOTHEKEOGD.2478634","geometry":{"type":"Point","coordinates":[16.35504459,48.23937682]},"geometry_name":"SHAPE","properties":{"OBJECTID":2478634,"BEZEICHNUNG":"Apotheke \"Zum heiligen Josef\"","BEZIRK":19,"STRASSE":"Döblinger Hauptstraße","ONR":"70","ADRESSE":"19., Döblinger Hauptstraße 70","TELEFON":"01 368 14 27","FAX":"01 369 24 24-6","EMAIL":"office@josefapotheke.at","WEBLINK1":"http://www.josefapotheke.at","SE_ANNO_CAD_DATA":null}},{"type":"Feature","id":"APOTHEKEOGD.2478635","geometry":{"type":"Point","coordinates":[16.36276289,48.24819441]},"geometry_name":"SHAPE","properties":{"OBJECTID":2478635,"BEZEICHNUNG":"Beethoven-Apotheke","BEZIRK":19,"STRASSE":"Heiligenstädter Straße","ONR":"82","ADRESSE":"19., Heiligenstädter Straße 82","TELEFON":"01 368 31 67","FAX":"01 368 31 67","EMAIL":"info@beethoven-apo.at","WEBLINK1":"http://www.beethoven-apo.at","SE_ANNO_CAD_DATA":null}},{"type":"Feature","id":"APOTHEKEOGD.2478636","geometry":{"type":"Point","coordinates":[16.34939057,48.24492889]},"geometry_name":"SHAPE","properties":{"OBJECTID":2478636,"BEZEICHNUNG":"Agnes Apotheke","BEZIRK":19,"STRASSE":"Silbergasse","ONR":"15","ADRESSE":"19., Silbergasse 15","TELEFON":"01 368 32 68","FAX":"01 368 32 68","EMAIL":"office@agnesapo.at","WEBLINK1":"http://www.agnesapo.at","SE_ANNO_CAD_DATA":null}},{"type":"Feature","id":"APOTHEKEOGD.2478637","geometry":{"type":"Point","coordinates":[16.35538603,48.25401149]},"geometry_name":"SHAPE","properties":{"OBJECTID":2478637,"BEZEICHNUNG":"Apotheke \"Zum Weinberg\"","BEZIRK":19,"STRASSE":"Grinzinger Straße","ONR":"83","ADRESSE":"19., Grinzinger Straße 83","TELEFON":"01 370 00 70","FAX":"01 370 00 70","EMAIL":"service@apoweinberg.at","WEBLINK1":"http://www.apoweinberg.at","SE_ANNO_CAD_DATA":null}},{"type":"Feature","id":"APOTHEKEOGD.2478638","geometry":{"type":"Point","coordinates":[16.36603678,48.25538777]},"geometry_name":"SHAPE","properties":{"OBJECTID":2478638,"BEZEICHNUNG":"Apotheke Nussdorf","BEZIRK":19,"STRASSE":"Heiligenstädter Straße","ONR":"140","ADRESSE":"19., Heiligenstädter Straße 140","TELEFON":"01 367 45 04","FAX":"01 367 45 04","EMAIL":"info@apotheke-nussdorf.at","WEBLINK1":"http://www.apotheke-nussdorf.at","SE_ANNO_CAD_DATA":null}},{"type":"Feature","id":"APOTHEKEOGD.2478639","geometry":{"type":"Point","coordinates":[16.33127479,48.24369659]},"geometry_name":"SHAPE","properties":{"OBJECTID":2478639,"BEZEICHNUNG":"Fortuna-Apotheke","BEZIRK":19,"STRASSE":"Weinberggasse","ONR":"71","ADRESSE":"19., Weinberggasse 71","TELEFON":"01 328 33 72","FAX":"01 328 33 72","EMAIL":"fortuna-apotheke@utanet.at","WEBLINK1":null,"SE_ANNO_CAD_DATA":null}},{"type":"Feature","id":"APOTHEKEOGD.2478640","geometry":{"type":"Point","coordinates":[16.36567004,48.23335587]},"geometry_name":"SHAPE","properties":{"OBJECTID":2478640,"BEZEICHNUNG":"Apotheke \"Zur heiligen Elisabeth\"","BEZIRK":20,"STRASSE":"Klosterneuburger Straße","ONR":"75","ADRESSE":"20., Klosterneuburger Straße 75","TELEFON":"01 332 43 37","FAX":"01 332 43 37","EMAIL":"elisabethapo20@aon.at","WEBLINK1":null,"SE_ANNO_CAD_DATA":null}},{"type":"Feature","id":"APOTHEKEOGD.2478641","geometry":{"type":"Point","coordinates":[16.37651721,48.23934248]},"geometry_name":"SHAPE","properties":{"OBJECTID":2478641,"BEZEICHNUNG":"Leonhardus-Apotheke","BEZIRK":20,"STRASSE":"Höchstädtplatz","ONR":"1","ADRESSE":"20., Höchstädtplatz 1","TELEFON":"01 330 41 70","FAX":"01 330 41 70","EMAIL":"leonhardus_apotheke@aponet.at","WEBLINK1":null,"SE_ANNO_CAD_DATA":null}},{"type":"Feature","id":"APOTHEKEOGD.2478642","geometry":{"type":"Point","coordinates":[16.37306329,48.23323458]},"geometry_name":"SHAPE","properties":{"OBJECTID":2478642,"BEZEICHNUNG":"Meine Marienapotheke","BEZIRK":20,"STRASSE":"Hartlgasse","ONR":"25","ADRESSE":"20., Hartlgasse 25","TELEFON":"01 330 02 85","FAX":"01 330 02 85","EMAIL":"marien-apotheke@aon.at","WEBLINK1":"http://www.marienapo-wien20.at","SE_ANNO_CAD_DATA":null}},{"type":"Feature","id":"APOTHEKEOGD.2478643","geometry":{"type":"Point","coordinates":[16.37521993,48.24709063]},"geometry_name":"SHAPE","properties":{"OBJECTID":2478643,"BEZEICHNUNG":"Engelshof-Apotheke","BEZIRK":20,"STRASSE":"Leystraße","ONR":"19-21","ADRESSE":"20., Leystraße 19-21","TELEFON":"01 330 06 68","FAX":"01 330 06 68","EMAIL":"engelshof.apotheke@aon.at","WEBLINK1":null,"SE_ANNO_CAD_DATA":null}},{"type":"Feature","id":"APOTHEKEOGD.2478644","geometry":{"type":"Point","coordinates":[16.38395364,48.23813967]},"geometry_name":"SHAPE","properties":{"OBJECTID":2478644,"BEZEICHNUNG":"Allerheiligen-Apotheke","BEZIRK":20,"STRASSE":"Allerheiligenplatz","ONR":"4","ADRESSE":"20., Allerheiligenplatz 4","TELEFON":"01 330 43 23","FAX":"01 330 43 23","EMAIL":"office@baldia-kg.at","WEBLINK1":null,"SE_ANNO_CAD_DATA":null}},{"type":"Feature","id":"APOTHEKEOGD.2478645","geometry":{"type":"Point","coordinates":[16.34803081,48.19137729]},"geometry_name":"SHAPE","properties":{"OBJECTID":2478645,"BEZEICHNUNG":"Apotheke \"Zum heiligen Ägidius\"","BEZIRK":6,"STRASSE":"Gumpendorfer Straße","ONR":"105","ADRESSE":"6., Gumpendorfer Straße 105","TELEFON":"01 596 41 56","FAX":"01 596 41 56","EMAIL":"aegidiusapo@aponet.at","WEBLINK1":null,"SE_ANNO_CAD_DATA":null}},{"type":"Feature","id":"APOTHEKEOGD.2478646","geometry":{"type":"Point","coordinates":[16.3488863,48.20194111]},"geometry_name":"SHAPE","properties":{"OBJECTID":2478646,"BEZEICHNUNG":"Apotheke zur goldenen Rose","BEZIRK":7,"STRASSE":"Neubaugasse","ONR":"37","ADRESSE":"7., Neubaugasse 37","TELEFON":"01 523 22 46","FAX":"01 523 22 46","EMAIL":"apotheke@goldenerose.at","WEBLINK1":null,"SE_ANNO_CAD_DATA":null}},{"type":"Feature","id":"APOTHEKEOGD.2478647","geometry":{"type":"Point","coordinates":[16.34338929,48.1967569]},"geometry_name":"SHAPE","properties":{"OBJECTID":2478647,"BEZEICHNUNG":"Apotheke \"Zur Kaiserkrone\"","BEZIRK":7,"STRASSE":"Mariahilfer Straße","ONR":"110","ADRESSE":"7., Mariahilfer Straße 110","TELEFON":"01 526 26 46","FAX":"01 526 26 46","EMAIL":"pharminfo@kaiserkrone.at","WEBLINK1":"http://www.kaiserkrone.co.at","SE_ANNO_CAD_DATA":null}},{"type":"Feature","id":"APOTHEKEOGD.2478648","geometry":{"type":"Point","coordinates":[16.34944739,48.19823134]},"geometry_name":"SHAPE","properties":{"OBJECTID":2478648,"BEZEICHNUNG":"Essenz Apotheke Neubau","BEZIRK":7,"STRASSE":"Mariahilfer Straße","ONR":"72","ADRESSE":"7., Mariahilfer Straße 72","TELEFON":"01 523 33 10","FAX":"01 523 33 10","EMAIL":"kreuz-apotheke@chello.at","WEBLINK1":null,"SE_ANNO_CAD_DATA":null}},{"type":"Feature","id":"APOTHEKEOGD.2478649","geometry":{"type":"Point","coordinates":[16.33988345,48.20421794]},"geometry_name":"SHAPE","properties":{"OBJECTID":2478649,"BEZEICHNUNG":"Apotheke \"An der Kaiserstraße\"","BEZIRK":7,"STRASSE":"Kaiserstraße","ONR":"73-75","ADRESSE":"7., Kaiserstraße 73-75","TELEFON":"01 523 13 72","FAX":"01 523 13 72","EMAIL":"apotheke@wasilewski.at","WEBLINK1":null,"SE_ANNO_CAD_DATA":null}},{"type":"Feature","id":"APOTHEKEOGD.2478650","geometry":{"type":"Point","coordinates":[16.35302515,48.20428997]},"geometry_name":"SHAPE","properties":{"OBJECTID":2478650,"BEZEICHNUNG":"Mariatroster Apotheke \"Zum Hl. Ulrich\"","BEZIRK":7,"STRASSE":"Burggasse","ONR":"22","ADRESSE":"7., Burggasse 22","TELEFON":"01 523 83 00","FAX":"01 523 83 00","EMAIL":"office@ulrichs-apotheke.at","WEBLINK1":null,"SE_ANNO_CAD_DATA":null}},{"type":"Feature","id":"APOTHEKEOGD.2478651","geometry":{"type":"Point","coordinates":[16.35432642,48.20255587]},"geometry_name":"SHAPE","properties":{"OBJECTID":2478651,"BEZEICHNUNG":"Apotheke am Spittelberg","BEZIRK":7,"STRASSE":"Stiftgasse","ONR":"23","ADRESSE":"7., Stiftgasse 23","TELEFON":"01 526 92 08","FAX":"01 526 92 08","EMAIL":"service@apospittelberg.at","WEBLINK1":"http://www.onlineapo.at","SE_ANNO_CAD_DATA":null}},{"type":"Feature","id":"APOTHEKEOGD.2478652","geometry":{"type":"Point","coordinates":[16.34969514,48.20623897]},"geometry_name":"SHAPE","properties":{"OBJECTID":2478652,"BEZEICHNUNG":"Walfisch-Apotheke","BEZIRK":7,"STRASSE":"Lerchenfelder Straße","ONR":"41","ADRESSE":"7., Lerchenfelder Straße 41","TELEFON":"01 523 81 79","FAX":"01 523 81 79","EMAIL":"walfischapotheke@utanet.at","WEBLINK1":null,"SE_ANNO_CAD_DATA":null}},{"type":"Feature","id":"APOTHEKEOGD.2478653","geometry":{"type":"Point","coordinates":[16.34346993,48.2019236]},"geometry_name":"SHAPE","properties":{"OBJECTID":2478653,"BEZEICHNUNG":"Apotheke \"Zum weißen Hirschen\"","BEZIRK":7,"STRASSE":"Westbahnstraße","ONR":"32","ADRESSE":"7., Westbahnstraße 32","TELEFON":"01 523 76 68","FAX":"01 523 76 68","EMAIL":"weisserhirsch@aon.at","WEBLINK1":null,"SE_ANNO_CAD_DATA":null}},{"type":"Feature","id":"APOTHEKEOGD.2478654","geometry":{"type":"Point","coordinates":[16.34328686,48.21079632]},"geometry_name":"SHAPE","properties":{"OBJECTID":2478654,"BEZEICHNUNG":"Maria-Treu-Apotheke","BEZIRK":8,"STRASSE":"Josefstädter Straße","ONR":"68","ADRESSE":"8., Josefstädter Straße 68","TELEFON":"01 405 26 80","FAX":"01 405 26 80","EMAIL":"mta@maria-treu-apotheke.com","WEBLINK1":"http://www.maria-treu-apotheke.com","SE_ANNO_CAD_DATA":null}},{"type":"Feature","id":"APOTHEKEOGD.2478655","geometry":{"type":"Point","coordinates":[16.35236241,48.21186082]},"geometry_name":"SHAPE","properties":{"OBJECTID":2478655,"BEZEICHNUNG":"Apotheke i.d. Josefstadt zur hl. Johanna","BEZIRK":8,"STRASSE":"Florianigasse","ONR":"13","ADRESSE":"8., Florianigasse 13","TELEFON":"01 406 45 98","FAX":"01 406 45 98","EMAIL":"office@aporank.at","WEBLINK1":null,"SE_ANNO_CAD_DATA":null}},{"type":"Feature","id":"APOTHEKEOGD.2478656","geometry":{"type":"Point","coordinates":[16.35026282,48.20937978]},"geometry_name":"SHAPE","properties":{"OBJECTID":2478656,"BEZEICHNUNG":"Alte Löwen-Apotheke","BEZIRK":8,"STRASSE":"Josefstädter Straße","ONR":"25","ADRESSE":"8., Josefstädter Straße 25","TELEFON":"01 405 34 12","FAX":"01 405 34 12","EMAIL":"info@alte-loewen-apotheke.at","WEBLINK1":null,"SE_ANNO_CAD_DATA":null}},{"type":"Feature","id":"APOTHEKEOGD.2478657","geometry":{"type":"Point","coordinates":[16.34538032,48.21516355]},"geometry_name":"SHAPE","properties":{"OBJECTID":2478657,"BEZEICHNUNG":"Kaiser-Josef-Apotheke","BEZIRK":8,"STRASSE":"Alser Straße","ONR":"51","ADRESSE":"8., Alser Straße 51","TELEFON":"01 405 63 77","FAX":"01 405 63 77","EMAIL":"kaiserjosefapotheke@aon.at","WEBLINK1":null,"SE_ANNO_CAD_DATA":null}},{"type":"Feature","id":"APOTHEKEOGD.2478658","geometry":{"type":"Point","coordinates":[16.3429767,48.20777086]},"geometry_name":"SHAPE","properties":{"OBJECTID":2478658,"BEZEICHNUNG":"Welt-Apotheke","BEZIRK":8,"STRASSE":"Lerchenfelder Straße","ONR":"120","ADRESSE":"8., Lerchenfelder Straße 120","TELEFON":"01 405 21 18","FAX":"01 406 14 13","EMAIL":"office@weltapotheke.at","WEBLINK1":"http://www.weltapotheke.at","SE_ANNO_CAD_DATA":null}},{"type":"Feature","id":"APOTHEKEOGD.2478659","geometry":{"type":"Point","coordinates":[16.35674559,48.21477482]},"geometry_name":"SHAPE","properties":{"OBJECTID":2478659,"BEZEICHNUNG":"Apotheke \"Zur Universität\"","BEZIRK":9,"STRASSE":"Universitätsstraße","ONR":"10","ADRESSE":"9., Universitätsstraße 10","TELEFON":"01 402 52 98","FAX":"01 402 52 98","EMAIL":"mipharm@netway.at","WEBLINK1":"http://www.uniapotheke.at","SE_ANNO_CAD_DATA":null}},{"type":"Feature","id":"APOTHEKEOGD.2478660","geometry":{"type":"Point","coordinates":[16.36049001,48.2206784]},"geometry_name":"SHAPE","properties":{"OBJECTID":2478660,"BEZEICHNUNG":"Vindobona-Apotheke","BEZIRK":9,"STRASSE":"Bauernfeldplatz","ONR":"4","ADRESSE":"9., Bauernfeldplatz 4","TELEFON":"01 317 51 91","FAX":"01 317 51 91","EMAIL":"vindobona.apo@aponet.at","WEBLINK1":null,"SE_ANNO_CAD_DATA":null}},{"type":"Feature","id":"APOTHEKEOGD.2478661","geometry":{"type":"Point","coordinates":[16.35288005,48.2226249]},"geometry_name":"SHAPE","properties":{"OBJECTID":2478661,"BEZEICHNUNG":"St. Anna-Apotheke","BEZIRK":9,"STRASSE":"Währinger Straße","ONR":"56","ADRESSE":"9., Währinger Straße 56","TELEFON":"01 317 74 28","FAX":"01 317 74 28","EMAIL":"st.anna@doskar.at","WEBLINK1":"http://www.st-anna-apotheke.at","SE_ANNO_CAD_DATA":null}},{"type":"Feature","id":"APOTHEKEOGD.2478662","geometry":{"type":"Point","coordinates":[16.35919745,48.21748887]},"geometry_name":"SHAPE","properties":{"OBJECTID":2478662,"BEZEICHNUNG":"Apotheke \"Zur Austria\"","BEZIRK":9,"STRASSE":"Währinger Straße","ONR":"18","ADRESSE":"9., Währinger Straße 18","TELEFON":"01 317 93 29","FAX":"01 317 93 29","EMAIL":"office@austriaapo.at","WEBLINK1":null,"SE_ANNO_CAD_DATA":null}},{"type":"Feature","id":"APOTHEKEOGD.2478663","geometry":{"type":"Point","coordinates":[16.34989424,48.21520617]},"geometry_name":"SHAPE","properties":{"OBJECTID":2478663,"BEZEICHNUNG":"Tiger-Apotheke","BEZIRK":9,"STRASSE":"Alser Straße","ONR":"12","ADRESSE":"9., Alser Straße 12","TELEFON":"01 405 71 23","FAX":"01 405 71 23","EMAIL":"tiger.apotheke@inode.at","WEBLINK1":null,"SE_ANNO_CAD_DATA":null}},{"type":"Feature","id":"APOTHEKEOGD.2478664","geometry":{"type":"Point","coordinates":[16.35410434,48.23145378]},"geometry_name":"SHAPE","properties":{"OBJECTID":2478664,"BEZEICHNUNG":"Auge-Gottes-Apotheke","BEZIRK":9,"STRASSE":"Nußdorfer Straße","ONR":"79","ADRESSE":"9., Nußdorfer Straße 79","TELEFON":"01 317 93 44","FAX":"01 317 93 44","EMAIL":"apotheke@augegottes.at","WEBLINK1":null,"SE_ANNO_CAD_DATA":null}},{"type":"Feature","id":"APOTHEKEOGD.2478665","geometry":{"type":"Point","coordinates":[16.35175598,48.22560792]},"geometry_name":"SHAPE","properties":{"OBJECTID":2478665,"BEZEICHNUNG":"Josefinen-Apotheke","BEZIRK":9,"STRASSE":"Sechsschimmelgasse","ONR":"17","ADRESSE":"9., Sechsschimmelgasse 17","TELEFON":"01 317 92 07","FAX":"01 317 92 07","EMAIL":"josefinen.apotheke@aon.at","WEBLINK1":null,"SE_ANNO_CAD_DATA":null}},{"type":"Feature","id":"APOTHEKEOGD.2478666","geometry":{"type":"Point","coordinates":[16.3641238,48.22648052]},"geometry_name":"SHAPE","properties":{"OBJECTID":2478666,"BEZEICHNUNG":"Hubertus-Apotheke","BEZIRK":9,"STRASSE":"Alserbachstraße","ONR":"28","ADRESSE":"9., Alserbachstraße 28","TELEFON":"01 317 51 88","FAX":"01 317 51 88","EMAIL":"hubertus.apo@aon.at","WEBLINK1":null,"SE_ANNO_CAD_DATA":null}},{"type":"Feature","id":"APOTHEKEOGD.2478667","geometry":{"type":"Point","coordinates":[16.35628116,48.22695835]},"geometry_name":"SHAPE","properties":{"OBJECTID":2478667,"BEZEICHNUNG":"Apotheke zum goldenen Elephanten","BEZIRK":9,"STRASSE":"Liechtensteinstraße","ONR":"93","ADRESSE":"9., Liechtensteinstraße 93","TELEFON":"01 317 92 14","FAX":"01 317 92 14","EMAIL":"zum.goldenen.elephanten@aon.at","WEBLINK1":null,"SE_ANNO_CAD_DATA":null}},{"type":"Feature","id":"APOTHEKEOGD.2478668","geometry":{"type":"Point","coordinates":[16.36078302,48.22522943]},"geometry_name":"SHAPE","properties":{"OBJECTID":2478668,"BEZEICHNUNG":"Bahnhof-Apotheke","BEZIRK":9,"STRASSE":"Julius-Tandler-Platz","ONR":"10","ADRESSE":"9., Julius-Tandler-Platz 10","TELEFON":"01 317 52 11","FAX":"01 317 52 11","EMAIL":"bahnhofapotheke@aon.at","WEBLINK1":null,"SE_ANNO_CAD_DATA":null}},{"type":"Feature","id":"APOTHEKEOGD.2478669","geometry":{"type":"Point","coordinates":[16.36433288,48.17046484]},"geometry_name":"SHAPE","properties":{"OBJECTID":2478669,"BEZEICHNUNG":"Trost-Apotheke","BEZIRK":10,"STRASSE":"Neilreichgasse","ONR":"66","ADRESSE":"10., Neilreichgasse 66","TELEFON":"01 604 24 98","FAX":"01 604 24 98","EMAIL":"office@trost-apotheke.at","WEBLINK1":null,"SE_ANNO_CAD_DATA":null}},{"type":"Feature","id":"APOTHEKEOGD.2478670","geometry":{"type":"Point","coordinates":[16.38091111,48.1683698]},"geometry_name":"SHAPE","properties":{"OBJECTID":2478670,"BEZEICHNUNG":"Apotheke U1 Troststraße","BEZIRK":10,"STRASSE":"Favoritenstraße","ONR":"163","ADRESSE":"10., Favoritenstraße 163","TELEFON":"01 604 23 22","FAX":"01 604 23 22","EMAIL":"info@apotheke-u1.at","WEBLINK1":"http://apotheke-u1.at/","SE_ANNO_CAD_DATA":null}},{"type":"Feature","id":"APOTHEKEOGD.2478671","geometry":{"type":"Point","coordinates":[16.37650316,48.17885715]},"geometry_name":"SHAPE","properties":{"OBJECTID":2478671,"BEZEICHNUNG":"Madonnen-Apotheke","BEZIRK":10,"STRASSE":"Keplerplatz","ONR":"12","ADRESSE":"10., Keplerplatz 12","TELEFON":"01 604 32 76","FAX":"01 604 32 76","EMAIL":"madonnen-apotheke@chello.at","WEBLINK1":null,"SE_ANNO_CAD_DATA":null}},{"type":"Feature","id":"APOTHEKEOGD.2478672","geometry":{"type":"Point","coordinates":[16.35852489,48.17465193]},"geometry_name":"SHAPE","properties":{"OBJECTID":2478672,"BEZEICHNUNG":"DaVinci Apotheke","BEZIRK":10,"STRASSE":"Davidgasse","ONR":"82-90","ADRESSE":"10., Davidgasse 82 - 90","TELEFON":"01 604 25 60","FAX":"01 604 25 60 32","EMAIL":"office@davinci-apotheke.at","WEBLINK1":null,"SE_ANNO_CAD_DATA":null}},{"type":"Feature","id":"APOTHEKEOGD.2478673","geometry":{"type":"Point","coordinates":[16.37762365,48.17448288]},"geometry_name":"SHAPE","properties":{"OBJECTID":2478673,"BEZEICHNUNG":"Apotheke am Reumannplatz","BEZIRK":10,"STRASSE":"Reumannplatz","ONR":"16","ADRESSE":"10., Reumannplatz 16","TELEFON":"01 604 13 98","FAX":"01 604 13 98","EMAIL":"info@apotheke-reumannplatz.at","WEBLINK1":null,"SE_ANNO_CAD_DATA":null}},{"type":"Feature","id":"APOTHEKEOGD.2478674","geometry":{"type":"Point","coordinates":[16.38944771,48.17369604]},"geometry_name":"SHAPE","properties":{"OBJECTID":2478674,"BEZEICHNUNG":"Quellen-Apotheke","BEZIRK":10,"STRASSE":"Quellenstraße","ONR":"45","ADRESSE":"10., Quellenstraße 45","TELEFON":"01 604 32 24","FAX":"01 604 32 24","EMAIL":"quellen.apotheke@utanet.at","WEBLINK1":null,"SE_ANNO_CAD_DATA":null}},{"type":"Feature","id":"APOTHEKEOGD.2478675","geometry":{"type":"Point","coordinates":[16.37545427,48.18144769]},"geometry_name":"SHAPE","properties":{"OBJECTID":2478675,"BEZEICHNUNG":"Columbus Apotheke","BEZIRK":10,"STRASSE":"Favoritenstraße","ONR":"73","ADRESSE":"10., Favoritenstraße 73","TELEFON":"01 604 32 69","FAX":"01 604 32 69-15","EMAIL":"info@ColumbusApotheke.at","WEBLINK1":"https://ColumbusApotheke.at","SE_ANNO_CAD_DATA":null}},{"type":"Feature","id":"APOTHEKEOGD.2478676","geometry":{"type":"Point","coordinates":[16.37225702,48.17356303]},"geometry_name":"SHAPE","properties":{"OBJECTID":2478676,"BEZEICHNUNG":"Antonius-Apotheke","BEZIRK":10,"STRASSE":"Arthaberplatz","ONR":"17","ADRESSE":"10., Arthaberplatz 17","TELEFON":"01 604 24 16","FAX":"01 604 24 16","EMAIL":"antonius-apotheke@hotmail.com","WEBLINK1":null,"SE_ANNO_CAD_DATA":null}},{"type":"Feature","id":"APOTHEKEOGD.2478677","geometry":{"type":"Point","coordinates":[16.38293655,48.14123351]},"geometry_name":"SHAPE","properties":{"OBJECTID":2478677,"BEZEICHNUNG":"Die Apotheke am Liesingbach","BEZIRK":10,"STRASSE":"Himberger Straße","ONR":"35","ADRESSE":"10., Himberger Straße 35","TELEFON":"01 688 49 00","FAX":"01 688 49 00","EMAIL":"liesingbach@apothekenoberlaa.at","WEBLINK1":"http://www.apothekenoberlaa.at","SE_ANNO_CAD_DATA":null}},{"type":"Feature","id":"APOTHEKEOGD.2478678","geometry":{"type":"Point","coordinates":[16.31437028,48.2134706]},"geometry_name":"SHAPE","properties":{"OBJECTID":2478678,"BEZEICHNUNG":"Wilhelminen-Apotheke","BEZIRK":16,"STRASSE":"Ottakringer Straße","ONR":"176","ADRESSE":"16., Ottakringer Straße 176","TELEFON":"01 486 31 72","FAX":"01 486 31 72","EMAIL":"wilhelminen.apo@aponet.at","WEBLINK1":null,"SE_ANNO_CAD_DATA":null}},{"type":"Feature","id":"APOTHEKEOGD.2478679","geometry":{"type":"Point","coordinates":[16.31911285,48.21732714]},"geometry_name":"SHAPE","properties":{"OBJECTID":2478679,"BEZEICHNUNG":"Marien-Apotheke","BEZIRK":16,"STRASSE":"Rückertgasse","ONR":"26","ADRESSE":"16., Rückertgasse 26","TELEFON":"01 486 22 60","FAX":"01 486 22 60","EMAIL":"office@marienapotheke1160.at","WEBLINK1":"http://www.marienapotheke1160.at","SE_ANNO_CAD_DATA":null}},{"type":"Feature","id":"APOTHEKEOGD.2478680","geometry":{"type":"Point","coordinates":[16.33419984,48.21437856]},"geometry_name":"SHAPE","properties":{"OBJECTID":2478680,"BEZEICHNUNG":"Stern-Apotheke","BEZIRK":16,"STRASSE":"Ottakringer Straße","ONR":"39","ADRESSE":"16., Ottakringer Straße 39","TELEFON":"01 406 75 71","FAX":"01 406 75 71","EMAIL":"office@stern-apotheke.at","WEBLINK1":null,"SE_ANNO_CAD_DATA":null}},{"type":"Feature","id":"APOTHEKEOGD.2478681","geometry":{"type":"Point","coordinates":[16.32443902,48.20924696]},"geometry_name":"SHAPE","properties":{"OBJECTID":2478681,"BEZEICHNUNG":"Apotheke \"Zur Maria Trost\"","BEZIRK":16,"STRASSE":"Hasnerstraße","ONR":"71","ADRESSE":"16., Hasnerstraße 71","TELEFON":"01 492 10 93","FAX":"01 492 10 93","EMAIL":"office@mariatrost-apotheke.at","WEBLINK1":"http://www.mariatrost-apotheke.at","SE_ANNO_CAD_DATA":null}},{"type":"Feature","id":"APOTHEKEOGD.2478682","geometry":{"type":"Point","coordinates":[16.31932425,48.21161271]},"geometry_name":"SHAPE","properties":{"OBJECTID":2478682,"BEZEICHNUNG":"Apotheke am Schuhmeierplatz","BEZIRK":16,"STRASSE":"Schuhmeierplatz","ONR":"14","ADRESSE":"16., Schuhmeierplatz 14","TELEFON":"01 486 33 74","FAX":"01 486 33 74","EMAIL":"office@aposchuhmeierplatz.at","WEBLINK1":"http://www.aposchuhmeierplatz.at","SE_ANNO_CAD_DATA":null}},{"type":"Feature","id":"APOTHEKEOGD.2478683","geometry":{"type":"Point","coordinates":[16.33269075,48.20793233]},"geometry_name":"SHAPE","properties":{"OBJECTID":2478683,"BEZEICHNUNG":"Adler-Apotheke","BEZIRK":16,"STRASSE":"Kirchstetterngasse","ONR":"36","ADRESSE":"16., Kirchstetterngasse 36","TELEFON":"01 493 18 89","FAX":"01 493 18 89","EMAIL":"mag.fiala@adler-apotheke.at","WEBLINK1":null,"SE_ANNO_CAD_DATA":null}},{"type":"Feature","id":"APOTHEKEOGD.2478684","geometry":{"type":"Point","coordinates":[16.33786693,48.20846296]},"geometry_name":"SHAPE","properties":{"OBJECTID":2478684,"BEZEICHNUNG":"Thalia-Apotheke","BEZIRK":16,"STRASSE":"Lerchenfelder Gürtel","ONR":"35","ADRESSE":"16., Lerchenfelder Gürtel 35","TELEFON":"01 492 08 92","FAX":"01 492 08 92","EMAIL":"thalia.apo@aon.at","WEBLINK1":null,"SE_ANNO_CAD_DATA":null}},{"type":"Feature","id":"APOTHEKEOGD.2478685","geometry":{"type":"Point","coordinates":[16.31705388,48.20776425]},"geometry_name":"SHAPE","properties":{"OBJECTID":2478685,"BEZEICHNUNG":"Herbst-Apotheke","BEZIRK":16,"STRASSE":"Herbststraße","ONR":"99","ADRESSE":"16., Herbststraße 99","TELEFON":"01 493 17 94","FAX":"01 493 17 94","EMAIL":null,"WEBLINK1":null,"SE_ANNO_CAD_DATA":null}},{"type":"Feature","id":"APOTHEKEOGD.2478686","geometry":{"type":"Point","coordinates":[16.30944407,48.21224522]},"geometry_name":"SHAPE","properties":{"OBJECTID":2478686,"BEZEICHNUNG":"Antonius-Apotheke","BEZIRK":16,"STRASSE":"Stillfriedplatz","ONR":"4","ADRESSE":"16., Stillfriedplatz 4","TELEFON":"01 493 13 49","FAX":"01 493 13 49","EMAIL":"antonius@apo.or.at","WEBLINK1":null,"SE_ANNO_CAD_DATA":null}},{"type":"Feature","id":"APOTHEKEOGD.2478687","geometry":{"type":"Point","coordinates":[16.3051851,48.21007445]},"geometry_name":"SHAPE","properties":{"OBJECTID":2478687,"BEZEICHNUNG":"Apotheke Alte Remise","BEZIRK":16,"STRASSE":"Maroltingergasse","ONR":"53","ADRESSE":"16., Maroltingergasse 53","TELEFON":"01 494 14 92","FAX":"01 494 14 92","EMAIL":"alte.remise@apohofer.at","WEBLINK1":null,"SE_ANNO_CAD_DATA":null}},{"type":"Feature","id":"APOTHEKEOGD.2478688","geometry":{"type":"Point","coordinates":[16.32785241,48.21553936]},"geometry_name":"SHAPE","properties":{"OBJECTID":2478688,"BEZEICHNUNG":"Apo1170 Apotheke","BEZIRK":17,"STRASSE":"Parhamerplatz","ONR":"6","ADRESSE":"17., Parhamerplatz 6","TELEFON":"01 486 14 85","FAX":"01 486 14 85","EMAIL":"apotheke.clemens@tele2.at","WEBLINK1":null,"SE_ANNO_CAD_DATA":null}},{"type":"Feature","id":"APOTHEKEOGD.2478689","geometry":{"type":"Point","coordinates":[16.31841635,48.22233193]},"geometry_name":"SHAPE","properties":{"OBJECTID":2478689,"BEZEICHNUNG":"Linden-Apotheke","BEZIRK":17,"STRASSE":"Hernalser Hauptstraße","ONR":"155","ADRESSE":"17., Hernalser Hauptstraße 155","TELEFON":"01 486 24 04","FAX":"01 486 24 04","EMAIL":"lindenapotheke@gmx.at","WEBLINK1":"http://www.lindenapo.info","SE_ANNO_CAD_DATA":null}},{"type":"Feature","id":"APOTHEKEOGD.2478690","geometry":{"type":"Point","coordinates":[16.32613087,48.21935549]},"geometry_name":"SHAPE","properties":{"OBJECTID":2478690,"BEZEICHNUNG":"Apotheke zum Weissen Kreuz","BEZIRK":17,"STRASSE":"Hernalser Hauptstraße","ONR":"99","ADRESSE":"17., Hernalser Hauptstraße 99","TELEFON":"01 486 33 86","FAX":"01 486 33 86","EMAIL":"apoweisseskreuz@hotmail.com","WEBLINK1":null,"SE_ANNO_CAD_DATA":null}},{"type":"Feature","id":"APOTHEKEOGD.2478691","geometry":{"type":"Point","coordinates":[16.30163097,48.22851895]},"geometry_name":"SHAPE","properties":{"OBJECTID":2478691,"BEZEICHNUNG":"Armonia Apotheke","BEZIRK":17,"STRASSE":"Vollbadgasse","ONR":"1A","ADRESSE":"17., Vollbadgasse 1A","TELEFON":"01 486 24 14","FAX":"01 486 24 14","EMAIL":"apotheke@armonia.at","WEBLINK1":"http://www.armonia.at","SE_ANNO_CAD_DATA":null}},{"type":"Feature","id":"APOTHEKEOGD.2478692","geometry":{"type":"Point","coordinates":[16.33535207,48.22250147]},"geometry_name":"SHAPE","properties":{"OBJECTID":2478692,"BEZEICHNUNG":"Friedrichs-Apotheke","BEZIRK":17,"STRASSE":"Kalvarienberggasse","ONR":"66","ADRESSE":"17., Kalvarienberggasse 66","TELEFON":"01 408 17 60","FAX":"01 408 17 60","EMAIL":"apo@friedrichsapotheke.at","WEBLINK1":null,"SE_ANNO_CAD_DATA":null}},{"type":"Feature","id":"APOTHEKEOGD.2478693","geometry":{"type":"Point","coordinates":[16.33144247,48.22101921]},"geometry_name":"SHAPE","properties":{"OBJECTID":2478693,"BEZEICHNUNG":"Igel-Apotheke","BEZIRK":17,"STRASSE":"Hormayrgasse","ONR":"21","ADRESSE":"17., Hormayrgasse 21","TELEFON":"01 486 32 99","FAX":"01 486 32 99","EMAIL":"info@igel-apotheke.at","WEBLINK1":"http://www.igel-apotheke.at","SE_ANNO_CAD_DATA":null}},{"type":"Feature","id":"APOTHEKEOGD.2478694","geometry":{"type":"Point","coordinates":[16.31148,48.22518986]},"geometry_name":"SHAPE","properties":{"OBJECTID":2478694,"BEZEICHNUNG":"Apotheke Hernals","BEZIRK":17,"STRASSE":"Hernalser Hauptstraße","ONR":"212","ADRESSE":"17., Hernalser Hauptstraße 212","TELEFON":"01 489 37 97","FAX":"01 489 37 97","EMAIL":"apotheke.hernals@aon.at","WEBLINK1":null,"SE_ANNO_CAD_DATA":null}},{"type":"Feature","id":"APOTHEKEOGD.2478695","geometry":{"type":"Point","coordinates":[16.34486991,48.22693173]},"geometry_name":"SHAPE","properties":{"OBJECTID":2478695,"BEZEICHNUNG":"Apotheke \"Zum Schutzengel\"","BEZIRK":18,"STRASSE":"Gentzgasse","ONR":"26","ADRESSE":"18., Gentzgasse 26","TELEFON":"01 479 55 00","FAX":"01 479 55 00","EMAIL":"info@aposphere.at","WEBLINK1":null,"SE_ANNO_CAD_DATA":null}},{"type":"Feature","id":"APOTHEKEOGD.2478696","geometry":{"type":"Point","coordinates":[16.32822514,48.23219118]},"geometry_name":"SHAPE","properties":{"OBJECTID":2478696,"BEZEICHNUNG":"Gersthofer-Apotheke","BEZIRK":18,"STRASSE":"Gersthofer Straße","ONR":"61","ADRESSE":"18., Gersthofer Straße 61","TELEFON":"01 479 13 10","FAX":"01 479 13 10","EMAIL":"apo.gersthof@aon.at","WEBLINK1":null,"SE_ANNO_CAD_DATA":null}},{"type":"Feature","id":"APOTHEKEOGD.2478697","geometry":{"type":"Point","coordinates":[16.33528159,48.22818948]},"geometry_name":"SHAPE","properties":{"OBJECTID":2478697,"BEZEICHNUNG":"Adler-Apotheke","BEZIRK":18,"STRASSE":"Währinger Straße","ONR":"149","ADRESSE":"18., Währinger Straße 149","TELEFON":"01 479 33 20","FAX":"01 479 33 20","EMAIL":"office@adlerapotheke.co.at","WEBLINK1":"http://www.adlerapotheke.co.at","SE_ANNO_CAD_DATA":null}},{"type":"Feature","id":"APOTHEKEOGD.2478698","geometry":{"type":"Point","coordinates":[16.34212513,48.22680294]},"geometry_name":"SHAPE","properties":{"OBJECTID":2478698,"BEZEICHNUNG":"Marien-Apotheke","BEZIRK":18,"STRASSE":"Martinstraße","ONR":"93","ADRESSE":"18., Martinstraße 93","TELEFON":"01 479 19 70","FAX":"01 479 19 70","EMAIL":"office@marien-apo.at","WEBLINK1":null,"SE_ANNO_CAD_DATA":null}},{"type":"Feature","id":"APOTHEKEOGD.2478699","geometry":{"type":"Point","coordinates":[16.34835457,48.22536084]},"geometry_name":"SHAPE","properties":{"OBJECTID":2478699,"BEZEICHNUNG":"Hans Sachs-Apotheke","BEZIRK":18,"STRASSE":"Währinger Straße","ONR":"84","ADRESSE":"18., Währinger Straße 84","TELEFON":"01 479 69 55","FAX":"01 479 69 55","EMAIL":"hanssachsapotheke@hotmail.com","WEBLINK1":null,"SE_ANNO_CAD_DATA":null}},{"type":"Feature","id":"APOTHEKEOGD.2478700","geometry":{"type":"Point","coordinates":[16.32416353,48.23149809]},"geometry_name":"SHAPE","properties":{"OBJECTID":2478700,"BEZEICHNUNG":"Alsegger-Apotheke","BEZIRK":18,"STRASSE":"Alsegger Straße","ONR":"31","ADRESSE":"18., Alsegger Straße 31","TELEFON":"01 479 21 38","FAX":"01 479 21 38","EMAIL":"alsegg.apotheke@utanet.at","WEBLINK1":null,"SE_ANNO_CAD_DATA":null}},{"type":"Feature","id":"APOTHEKEOGD.2478701","geometry":{"type":"Point","coordinates":[16.33091695,48.22624621]},"geometry_name":"SHAPE","properties":{"OBJECTID":2478701,"BEZEICHNUNG":"Apotheke Weinhaus","BEZIRK":18,"STRASSE":"Kreuzgasse","ONR":"81","ADRESSE":"18., Kreuzgasse 81","TELEFON":"01 478 72 11","FAX":"01 478 72 11","EMAIL":"apotheke.weinhaus@aon.at","WEBLINK1":null,"SE_ANNO_CAD_DATA":null}},{"type":"Feature","id":"APOTHEKEOGD.2478702","geometry":{"type":"Point","coordinates":[16.30574873,48.25077758]},"geometry_name":"SHAPE","properties":{"OBJECTID":2478702,"BEZEICHNUNG":"Apotheke \"Zur guten Hoffnung\"","BEZIRK":19,"STRASSE":"Rathstraße","ONR":"16","ADRESSE":"19., Rathstraße 16","TELEFON":"01 440 12 58","FAX":"01 440 12 58","EMAIL":"klecka.wien@utanet.at","WEBLINK1":null,"SE_ANNO_CAD_DATA":null}},{"type":"Feature","id":"APOTHEKEOGD.2478703","geometry":{"type":"Point","coordinates":[16.33252854,48.18220932]},"geometry_name":"SHAPE","properties":{"OBJECTID":2478703,"BEZEICHNUNG":"Schubert-Apotheke","BEZIRK":12,"STRASSE":"Arndtstraße","ONR":"88","ADRESSE":"12., Arndtstraße 88","TELEFON":"01 813 72 32","FAX":"01 813 72 32","EMAIL":"office@schubertapotheke.at","WEBLINK1":null,"SE_ANNO_CAD_DATA":null}},{"type":"Feature","id":"APOTHEKEOGD.2478704","geometry":{"type":"Point","coordinates":[16.32345497,48.1644395]},"geometry_name":"SHAPE","properties":{"OBJECTID":2478704,"BEZEICHNUNG":"Metatron Apotheke","BEZIRK":12,"STRASSE":"Oswaldgasse","ONR":"65","ADRESSE":"12., Oswaldgasse 65","TELEFON":"01 802 02 80","FAX":"01 802 02 80","EMAIL":"office@metatron-apo.at","WEBLINK1":"http://www.metatron-apo.at","SE_ANNO_CAD_DATA":null}},{"type":"Feature","id":"APOTHEKEOGD.2478705","geometry":{"type":"Point","coordinates":[16.31734211,48.17602749]},"geometry_name":"SHAPE","properties":{"OBJECTID":2478705,"BEZEICHNUNG":"Apotheke zum lachenden Pinguin","BEZIRK":12,"STRASSE":"Hohenbergstraße","ONR":"11","ADRESSE":"12., Hohenbergstraße 11","TELEFON":"01 813 06 41","FAX":"01 813 06 41","EMAIL":"info@pinguin-apo.at","WEBLINK1":"http://www.pinguin-apo.at","SE_ANNO_CAD_DATA":null}},{"type":"Feature","id":"APOTHEKEOGD.2478706","geometry":{"type":"Point","coordinates":[16.28394773,48.17694043]},"geometry_name":"SHAPE","properties":{"OBJECTID":2478706,"BEZEICHNUNG":"Apotheke am Lainzer Platz","BEZIRK":13,"STRASSE":"Lainzer Straße","ONR":"139","ADRESSE":"13., Lainzer Straße 139","TELEFON":"01 804 81 07","FAX":"01 804 81 07","EMAIL":"service@apolainz.at","WEBLINK1":"http://www.apolainz.at/","SE_ANNO_CAD_DATA":null}},{"type":"Feature","id":"APOTHEKEOGD.2478707","geometry":{"type":"Point","coordinates":[16.27034694,48.19052928]},"geometry_name":"SHAPE","properties":{"OBJECTID":2478707,"BEZEICHNUNG":"Apotheke St. Veit","BEZIRK":13,"STRASSE":"Auhofstraße","ONR":"141","ADRESSE":"13., Auhofstraße 141","TELEFON":"01 877 56 71","FAX":"01 877 56 71","EMAIL":"office@veitapo.at","WEBLINK1":null,"SE_ANNO_CAD_DATA":null}},{"type":"Feature","id":"APOTHEKEOGD.2478708","geometry":{"type":"Point","coordinates":[16.29984421,48.1863937]},"geometry_name":"SHAPE","properties":{"OBJECTID":2478708,"BEZEICHNUNG":"Alt-Hietzinger Apotheke\"Zum Auge Gottes\"","BEZIRK":13,"STRASSE":"Hietzinger Hauptstraße","ONR":"24","ADRESSE":"13., Hietzinger Hauptstraße 24","TELEFON":"01 877 14 41","FAX":"01 877 14 41","EMAIL":"info@alt-hietzinger-apotheke.at","WEBLINK1":"http://www.alt-hietzinger-apotheke.at","SE_ANNO_CAD_DATA":null}},{"type":"Feature","id":"APOTHEKEOGD.2478709","geometry":{"type":"Point","coordinates":[16.27212933,48.16501225]},"geometry_name":"SHAPE","properties":{"OBJECTID":2478709,"BEZEICHNUNG":"St. Christophorus-Apotheke","BEZIRK":13,"STRASSE":"Dr.-Schober-Straße","ONR":"14-18","ADRESSE":"13., Dr.-Schober-Straße 14-18","TELEFON":"01 961 09 18","FAX":"01 961 09 18","EMAIL":"st.christophorus.apo.wien13@inode.at","WEBLINK1":null,"SE_ANNO_CAD_DATA":null}},{"type":"Feature","id":"APOTHEKEOGD.2478710","geometry":{"type":"Point","coordinates":[16.26851843,48.17928251]},"geometry_name":"SHAPE","properties":{"OBJECTID":2478710,"BEZEICHNUNG":"Jagdschloß Apotheke","BEZIRK":13,"STRASSE":"Jagdschloßgasse","ONR":"77-79","ADRESSE":"13., Jagdschloßgasse 77 - 79","TELEFON":"01 879 23 23","FAX":"01 879 23 23","EMAIL":"office@jagdschloss-apotheke.at","WEBLINK1":"http://www.jagdschloss-apotheke.at","SE_ANNO_CAD_DATA":null}},{"type":"Feature","id":"APOTHEKEOGD.2478711","geometry":{"type":"Point","coordinates":[16.28253293,48.19529513]},"geometry_name":"SHAPE","properties":{"OBJECTID":2478711,"BEZEICHNUNG":"St. Anna-Apotheke","BEZIRK":14,"STRASSE":"Linzer Straße","ONR":"261","ADRESSE":"14., Linzer Straße 261","TELEFON":"01 914 31 15","FAX":"01 914 31 15","EMAIL":"info@anna-apo.at","WEBLINK1":null,"SE_ANNO_CAD_DATA":null}},{"type":"Feature","id":"APOTHEKEOGD.2478712","geometry":{"type":"Point","coordinates":[16.30724154,48.19884964]},"geometry_name":"SHAPE","properties":{"OBJECTID":2478712,"BEZEICHNUNG":"Park-Apotheke","BEZIRK":14,"STRASSE":"Hütteldorfer Straße","ONR":"145","ADRESSE":"14., Hütteldorfer Straße 145","TELEFON":"01 982 53 38","FAX":"01 982 53 38","EMAIL":"park.apotheke@a1.net","WEBLINK1":null,"SE_ANNO_CAD_DATA":null}},{"type":"Feature","id":"APOTHEKEOGD.2478713","geometry":{"type":"Point","coordinates":[16.22017002,48.20994963]},"geometry_name":"SHAPE","properties":{"OBJECTID":2478713,"BEZEICHNUNG":"Marien-Apotheke","BEZIRK":14,"STRASSE":"Hauptstraße","ONR":"84","ADRESSE":"14., Hauptstraße 84","TELEFON":"01 979 10 51","FAX":"01 979 10 51","EMAIL":"marien.apotheke@aon.at","WEBLINK1":null,"SE_ANNO_CAD_DATA":null}},{"type":"Feature","id":"APOTHEKEOGD.2478714","geometry":{"type":"Point","coordinates":[16.29853409,48.19000524]},"geometry_name":"SHAPE","properties":{"OBJECTID":2478714,"BEZEICHNUNG":"St. Lucas-Apotheke","BEZIRK":14,"STRASSE":"Penzinger Straße","ONR":"99","ADRESSE":"14., Penzinger Straße 99","TELEFON":"01 894 61 90","FAX":"01 894 61 90","EMAIL":"st.lucas-apo@speed.at","WEBLINK1":null,"SE_ANNO_CAD_DATA":null}},{"type":"Feature","id":"APOTHEKEOGD.2478715","geometry":{"type":"Point","coordinates":[16.30104401,48.19777188]},"geometry_name":"SHAPE","properties":{"OBJECTID":2478715,"BEZEICHNUNG":"Flora-Apotheke","BEZIRK":14,"STRASSE":"Hütteldorfer Straße","ONR":"175","ADRESSE":"14., Hütteldorfer Straße 175","TELEFON":"01 914 52 07","FAX":"01 914 52 07","EMAIL":"office@flora-apotheke.co.at","WEBLINK1":"http://flora-apotheke.co.at","SE_ANNO_CAD_DATA":null}},{"type":"Feature","id":"APOTHEKEOGD.2478716","geometry":{"type":"Point","coordinates":[16.21818,48.20797566]},"geometry_name":"SHAPE","properties":{"OBJECTID":2478716,"BEZEICHNUNG":"Apotheke im Auhof Center","BEZIRK":14,"STRASSE":"Albert Schweitzer-Gasse","ONR":"6","ADRESSE":"14., Albert Schweitzer-Gasse 6","TELEFON":"01 577 14 44","FAX":"01 577 14 44","EMAIL":"info@apoauhof.at","WEBLINK1":"http://www.apoauhof.at","SE_ANNO_CAD_DATA":null}},{"type":"Feature","id":"APOTHEKEOGD.2478717","geometry":{"type":"Point","coordinates":[16.26134758,48.20158852]},"geometry_name":"SHAPE","properties":{"OBJECTID":2478717,"BEZEICHNUNG":"Belladonna-Apotheke","BEZIRK":14,"STRASSE":"Linzer Straße","ONR":"383","ADRESSE":"14., Linzer Straße 383","TELEFON":"01 914 13 82","FAX":"01 914 13 82","EMAIL":"apotheke@belladonna14.at","WEBLINK1":null,"SE_ANNO_CAD_DATA":null}},{"type":"Feature","id":"APOTHEKEOGD.2478718","geometry":{"type":"Point","coordinates":[16.24821591,48.20376063]},"geometry_name":"SHAPE","properties":{"OBJECTID":2478718,"BEZEICHNUNG":"St. Nikolai-Apotheke","BEZIRK":14,"STRASSE":"Linzer Straße","ONR":"462","ADRESSE":"14., Linzer Straße 462","TELEFON":"01 979 47 12","FAX":"01 979 47 12","EMAIL":"apotheke.st.nikolai@chello.at","WEBLINK1":null,"SE_ANNO_CAD_DATA":null}},{"type":"Feature","id":"APOTHEKEOGD.2478719","geometry":{"type":"Point","coordinates":[16.30442848,48.18944799]},"geometry_name":"SHAPE","properties":{"OBJECTID":2478719,"BEZEICHNUNG":"Apotheke \"Zum heiligen Rochus\"","BEZIRK":14,"STRASSE":"Nisselgasse","ONR":"17","ADRESSE":"14., Nisselgasse 17","TELEFON":"01 894 62 56","FAX":"01 894 62 56","EMAIL":"rochusapotheke@aon.at","WEBLINK1":null,"SE_ANNO_CAD_DATA":null}},{"type":"Feature","id":"APOTHEKEOGD.2478720","geometry":{"type":"Point","coordinates":[16.28907746,48.20229727]},"geometry_name":"SHAPE","properties":{"OBJECTID":2478720,"BEZEICHNUNG":"Flötzersteig-Apotheke","BEZIRK":14,"STRASSE":"Achtundvierzigerplatz/Staargasse","ONR":"28","ADRESSE":"14., Achtundvierzigerplatz/Staargasse 28, Staargasse 28","TELEFON":"01 914 14 97","FAX":"01 914 14 97","EMAIL":"info@pharmacare.at","WEBLINK1":null,"SE_ANNO_CAD_DATA":null}},{"type":"Feature","id":"APOTHEKEOGD.2478721","geometry":{"type":"Point","coordinates":[16.28731702,48.19698203]},"geometry_name":"SHAPE","properties":{"OBJECTID":2478721,"BEZEICHNUNG":"Europa-Apotheke","BEZIRK":14,"STRASSE":"Hütteldorfer Straße","ONR":"186","ADRESSE":"14., Hütteldorfer Straße 186","TELEFON":"01 912 37 90","FAX":"01 912 37 90","EMAIL":"europa.apotheke@aon.at","WEBLINK1":"http://www.pharmcare.at/europa-apotheke/","SE_ANNO_CAD_DATA":null}},{"type":"Feature","id":"APOTHEKEOGD.2478722","geometry":{"type":"Point","coordinates":[16.27305433,48.19845933]},"geometry_name":"SHAPE","properties":{"OBJECTID":2478722,"BEZEICHNUNG":"Apotheke Baumgarten","BEZIRK":14,"STRASSE":"Linzer Straße","ONR":"316","ADRESSE":"14., Linzer Straße 316","TELEFON":"01 914 11 77","FAX":"01 914 11 77","EMAIL":"apotheke-baumgarten@speed.at","WEBLINK1":null,"SE_ANNO_CAD_DATA":null}},{"type":"Feature","id":"APOTHEKEOGD.2478723","geometry":{"type":"Point","coordinates":[16.32756616,48.19796082]},"geometry_name":"SHAPE","properties":{"OBJECTID":2478723,"BEZEICHNUNG":"Willkommens-Apotheke","BEZIRK":15,"STRASSE":"Märzstraße","ONR":"49","ADRESSE":"15., Märzstraße 49","TELEFON":"01 982 54 05","FAX":"01 982 54 05 50","EMAIL":"service@willkommens-apotheke.at","WEBLINK1":"http://www.willkommens-apotheke.at/","SE_ANNO_CAD_DATA":null}},{"type":"Feature","id":"APOTHEKEOGD.2478724","geometry":{"type":"Point","coordinates":[16.31933113,48.19921483]},"geometry_name":"SHAPE","properties":{"OBJECTID":2478724,"BEZEICHNUNG":"team sante germania apotheke","BEZIRK":15,"STRASSE":"Hütteldorfer Straße","ONR":"76","ADRESSE":"15., Hütteldorfer Straße 76","TELEFON":"01 982 45 58","FAX":"01 982 45 58","EMAIL":"Office@germania-apotheke.at","WEBLINK1":"http://www.germania-apotheke.at","SE_ANNO_CAD_DATA":null}},{"type":"Feature","id":"APOTHEKEOGD.2478725","geometry":{"type":"Point","coordinates":[16.33056827,48.1914115]},"geometry_name":"SHAPE","properties":{"OBJECTID":2478725,"BEZEICHNUNG":"Dreifaltigkeits-Apotheke","BEZIRK":15,"STRASSE":"Mariahilfer Straße","ONR":"191","ADRESSE":"15., Mariahilfer Straße 191","TELEFON":"01 893 63 00","FAX":"01 893 63 00 4","EMAIL":"info@die-andere-apo.at","WEBLINK1":"https://www.die-andere-apo.at","SE_ANNO_CAD_DATA":null}},{"type":"Feature","id":"APOTHEKEOGD.2478726","geometry":{"type":"Point","coordinates":[16.32422218,48.18639467]},